{"type":"FeatureCollection","features":[{"type":"Feature","properties":{"nummer":22337,"baumbezeichnung_botanisch":"Picea abies","baumbezeichnung_deutsch":"Rotfichte","baumtyp":"Nadel","bemerkung":null,"pflanzjahr":null,"entnahmejahr":null,"marker-size":"small","marker-symbol":"park","marker-color":"#3BB451"},"geometry":{"type":"Point","coordinates":[15.42484476861667,47.1075042365912],"bbox":[15.42484476861667,47.1075042365912,15.42484476861667,47.1075042365912]}},{"type":"Feature","properties":{"nummer":13572,"baumbezeichnung_botanisch":"Picea abies","baumbezeichnung_deutsch":"Rotfichte","baumtyp":"Nadel","bemerkung":null,"pflanzjahr":null,"entnahmejahr":null,"marker-size":"small","marker-symbol":"park","marker-color":"#3BB451"},"geometry":{"type":"Point","coordinates":[15.4248465925168,47.10751856220903],"bbox":[15.4248465925168,47.10751856220903,15.4248465925168,47.10751856220903]}},{"type":"Feature","properties":{"nummer":6371,"baumbezeichnung_botanisch":"Picea abies","baumbezeichnung_deutsch":"Rotfichte","baumtyp":"Nadel","bemerkung":null,"pflanzjahr":null,"entnahmejahr":null,"marker-size":"small","marker-symbol":"park","marker-color":"#3BB451"},"geometry":{"type":"Point","coordinates":[15.42482782149007,47.10752379188111],"bbox":[15.42482782149007,47.10752379188111,15.42482782149007,47.10752379188111]}},{"type":"Feature","properties":{"nummer":27123,"baumbezeichnung_botanisch":"Aesculus x carnea","baumbezeichnung_deutsch":"Rotblühende Roßkastanie","baumtyp":"Laub","bemerkung":null,"pflanzjahr":"2008","entnahmejahr":null,"marker-size":"small","marker-symbol":"park2","marker-color":"#A3DDAD"},"geometry":{"type":"Point","coordinates":[15.43104877258529,47.10176066990817],"bbox":[15.43104877258529,47.10176066990817,15.43104877258529,47.10176066990817]}},{"type":"Feature","properties":{"nummer":27124,"baumbezeichnung_botanisch":"Aesculus flava","baumbezeichnung_deutsch":"Gelbe Pavie","baumtyp":"Laub","bemerkung":null,"pflanzjahr":"2008","entnahmejahr":null,"marker-size":"small","marker-symbol":"park2","marker-color":"#A3DDAD"},"geometry":{"type":"Point","coordinates":[15.43119290233682,47.10175899790224],"bbox":[15.43119290233682,47.10175899790224,15.43119290233682,47.10175899790224]}},{"type":"Feature","properties":{"nummer":27069,"baumbezeichnung_botanisch":"Celtis sp.","baumbezeichnung_deutsch":"Zürgelbaum","baumtyp":"Laub","bemerkung":null,"pflanzjahr":"2008","entnahmejahr":null,"marker-size":"small","marker-symbol":"park2","marker-color":"#A3DDAD"},"geometry":{"type":"Point","coordinates":[15.43115751948075,47.10166032331054],"bbox":[15.43115751948075,47.10166032331054,15.43115751948075,47.10166032331054]}},{"type":"Feature","properties":{"nummer":27112,"baumbezeichnung_botanisch":"Carpinus betulus 'Fastigiata'","baumbezeichnung_deutsch":"Säulenhainbuche","baumtyp":"Laub","bemerkung":null,"pflanzjahr":"2008","entnahmejahr":null,"marker-size":"small","marker-symbol":"park2","marker-color":"#A3DDAD"},"geometry":{"type":"Point","coordinates":[15.43107436830538,47.10097933220089],"bbox":[15.43107436830538,47.10097933220089,15.43107436830538,47.10097933220089]}},{"type":"Feature","properties":{"nummer":27113,"baumbezeichnung_botanisch":"Carpinus betulus 'Fastigiata'","baumbezeichnung_deutsch":"Säulenhainbuche","baumtyp":"Laub","bemerkung":null,"pflanzjahr":"2008","entnahmejahr":null,"marker-size":"small","marker-symbol":"park2","marker-color":"#A3DDAD"},"geometry":{"type":"Point","coordinates":[15.43118953545912,47.10098586507221],"bbox":[15.43118953545912,47.10098586507221,15.43118953545912,47.10098586507221]}},{"type":"Feature","properties":{"nummer":5959,"baumbezeichnung_botanisch":"Tilia cordata","baumbezeichnung_deutsch":"Winterlinde","baumtyp":"Laub","bemerkung":null,"pflanzjahr":null,"entnahmejahr":null,"marker-size":"small","marker-symbol":"park2","marker-color":"#A3DDAD"},"geometry":{"type":"Point","coordinates":[15.42590108798038,47.10637856028421],"bbox":[15.42590108798038,47.10637856028421,15.42590108798038,47.10637856028421]}},{"type":"Feature","properties":{"nummer":26490,"baumbezeichnung_botanisch":"Pyrus communis","baumbezeichnung_deutsch":"Gemeine Birne","baumtyp":"Laub","bemerkung":null,"pflanzjahr":null,"entnahmejahr":null,"marker-size":"small","marker-symbol":"park2","marker-color":"#A3DDAD"},"geometry":{"type":"Point","coordinates":[15.43166502614082,47.10095790200925],"bbox":[15.43166502614082,47.10095790200925,15.43166502614082,47.10095790200925]}},{"type":"Feature","properties":{"nummer":1198,"baumbezeichnung_botanisch":"Pyrus communis","baumbezeichnung_deutsch":"Gemeine Birne","baumtyp":"Laub","bemerkung":null,"pflanzjahr":null,"entnahmejahr":null,"marker-size":"small","marker-symbol":"park2","marker-color":"#A3DDAD"},"geometry":{"type":"Point","coordinates":[15.43165805002264,47.10103324249663],"bbox":[15.43165805002264,47.10103324249663,15.43165805002264,47.10103324249663]}},{"type":"Feature","properties":{"nummer":1130,"baumbezeichnung_botanisch":"Pyrus communis","baumbezeichnung_deutsch":"Gemeine Birne","baumtyp":"Laub","bemerkung":null,"pflanzjahr":null,"entnahmejahr":null,"marker-size":"small","marker-symbol":"park2","marker-color":"#A3DDAD"},"geometry":{"type":"Point","coordinates":[15.43164900154455,47.10111660548898],"bbox":[15.43164900154455,47.10111660548898,15.43164900154455,47.10111660548898]}},{"type":"Feature","properties":{"nummer":1132,"baumbezeichnung_botanisch":"Pyrus communis","baumbezeichnung_deutsch":"Gemeine Birne","baumtyp":"Laub","bemerkung":null,"pflanzjahr":null,"entnahmejahr":null,"marker-size":"small","marker-symbol":"park2","marker-color":"#A3DDAD"},"geometry":{"type":"Point","coordinates":[15.43162607048146,47.10134325966398],"bbox":[15.43162607048146,47.10134325966398,15.43162607048146,47.10134325966398]}},{"type":"Feature","properties":{"nummer":834,"baumbezeichnung_botanisch":"Pyrus communis","baumbezeichnung_deutsch":"Gemeine Birne","baumtyp":"Laub","bemerkung":null,"pflanzjahr":null,"entnahmejahr":null,"marker-size":"small","marker-symbol":"park2","marker-color":"#A3DDAD"},"geometry":{"type":"Point","coordinates":[15.43162156627728,47.1016091680198],"bbox":[15.43162156627728,47.1016091680198,15.43162156627728,47.1016091680198]}},{"type":"Feature","properties":{"nummer":27121,"baumbezeichnung_botanisch":"Prunus sp.","baumbezeichnung_deutsch":"Kirsche","baumtyp":"Laub","bemerkung":null,"pflanzjahr":null,"entnahmejahr":null,"marker-size":"small","marker-symbol":"park2","marker-color":"#A3DDAD"},"geometry":{"type":"Point","coordinates":[15.43162998003788,47.10169829171848],"bbox":[15.43162998003788,47.10169829171848,15.43162998003788,47.10169829171848]}},{"type":"Feature","properties":{"nummer":27122,"baumbezeichnung_botanisch":"Acer platanoides","baumbezeichnung_deutsch":"Spitzahorn","baumtyp":"Laub","bemerkung":null,"pflanzjahr":null,"entnahmejahr":null,"marker-size":"small","marker-symbol":"park2","marker-color":"#A3DDAD"},"geometry":{"type":"Point","coordinates":[15.43156010938715,47.1017655301352],"bbox":[15.43156010938715,47.1017655301352,15.43156010938715,47.1017655301352]}},{"type":"Feature","properties":{"nummer":27071,"baumbezeichnung_botanisch":"Picea abies","baumbezeichnung_deutsch":"Rotfichte","baumtyp":"Nadel","bemerkung":null,"pflanzjahr":null,"entnahmejahr":null,"marker-size":"small","marker-symbol":"park","marker-color":"#3BB451"},"geometry":{"type":"Point","coordinates":[15.43099530909937,47.1009924356369],"bbox":[15.43099530909937,47.1009924356369,15.43099530909937,47.1009924356369]}},{"type":"Feature","properties":{"nummer":1131,"baumbezeichnung_botanisch":"Pyrus 'Frucht'","baumbezeichnung_deutsch":"Fruchtbirne","baumtyp":"Laub","bemerkung":null,"pflanzjahr":"2009","entnahmejahr":"2013","marker-size":"small","marker-symbol":"park2","marker-color":"#B3B3B3"},"geometry":{"type":"Point","coordinates":[15.43163622297569,47.10119472369239],"bbox":[15.43163622297569,47.10119472369239,15.43163622297569,47.10119472369239]}},{"type":"Feature","properties":{"nummer":819,"baumbezeichnung_botanisch":"Pyrus 'Frucht'","baumbezeichnung_deutsch":"Fruchtbirne","baumtyp":"Laub","bemerkung":null,"pflanzjahr":"2009","entnahmejahr":null,"marker-size":"small","marker-symbol":"park2","marker-color":"#A3DDAD"},"geometry":{"type":"Point","coordinates":[15.4316208831622,47.10142404458112],"bbox":[15.4316208831622,47.10142404458112,15.4316208831622,47.10142404458112]}},{"type":"Feature","properties":{"nummer":820,"baumbezeichnung_botanisch":"Pyrus 'Frucht'","baumbezeichnung_deutsch":"Fruchtbirne","baumtyp":"Laub","bemerkung":null,"pflanzjahr":"2009","entnahmejahr":null,"marker-size":"small","marker-symbol":"park2","marker-color":"#A3DDAD"},"geometry":{"type":"Point","coordinates":[15.43161933758968,47.10151528801474],"bbox":[15.43161933758968,47.10151528801474,15.43161933758968,47.10151528801474]}},{"type":"Feature","properties":{"nummer":2802,"baumbezeichnung_botanisch":"Fraxinus excelsior","baumbezeichnung_deutsch":"Esche","baumtyp":"Laub","bemerkung":null,"pflanzjahr":null,"entnahmejahr":null,"marker-size":"small","marker-symbol":"park2","marker-color":"#A3DDAD"},"geometry":{"type":"Point","coordinates":[15.4257310486959,47.10155874401853],"bbox":[15.4257310486959,47.10155874401853,15.4257310486959,47.10155874401853]}}]}