{"type":"FeatureCollection","features":[{"type":"Feature","properties":{"nummer":27052,"baumbezeichnung_botanisch":"Tilia cordata","baumbezeichnung_deutsch":"Winterlinde","baumtyp":"Laub","altersklassifizierung":"alt","bemerkung":null,"pflanzjahr":null,"entnahmejahr":null,"baumpatenschaft":null,"objectid":1030},"geometry":{"type":"Point","coordinates":[15.425901087980384,47.106378560284206],"bbox":[15.425901087980384,47.106378560284206,15.425901087980384,47.106378560284206]}},{"type":"Feature","properties":{"nummer":27066,"baumbezeichnung_botanisch":"Pyrus communis","baumbezeichnung_deutsch":"Gemeine Birne","baumtyp":"Laub","altersklassifizierung":"alt","bemerkung":null,"pflanzjahr":null,"entnahmejahr":null,"baumpatenschaft":null,"objectid":2319},"geometry":{"type":"Point","coordinates":[15.431658050022639,47.10103324249663],"bbox":[15.431658050022639,47.10103324249663,15.431658050022639,47.10103324249663]}},{"type":"Feature","properties":{"nummer":27072,"baumbezeichnung_botanisch":"Pyrus communis","baumbezeichnung_deutsch":"Gemeine Birne","baumtyp":"Laub","altersklassifizierung":"alt","bemerkung":null,"pflanzjahr":null,"entnahmejahr":null,"baumpatenschaft":null,"objectid":2189},"geometry":{"type":"Point","coordinates":[15.431621566277276,47.1016091680198],"bbox":[15.431621566277276,47.1016091680198,15.431621566277276,47.1016091680198]}},{"type":"Feature","properties":{"nummer":27067,"baumbezeichnung_botanisch":"Pyrus communis","baumbezeichnung_deutsch":"Gemeine Birne","baumtyp":"Laub","altersklassifizierung":"alt","bemerkung":null,"pflanzjahr":null,"entnahmejahr":null,"baumpatenschaft":null,"objectid":3431},"geometry":{"type":"Point","coordinates":[15.431649001544548,47.10111660548898],"bbox":[15.431649001544548,47.10111660548898,15.431649001544548,47.10111660548898]}},{"type":"Feature","properties":{"nummer":27069,"baumbezeichnung_botanisch":"Pyrus communis","baumbezeichnung_deutsch":"Gemeine Birne","baumtyp":"Laub","altersklassifizierung":"alt","bemerkung":null,"pflanzjahr":null,"entnahmejahr":null,"baumpatenschaft":null,"objectid":3432},"geometry":{"type":"Point","coordinates":[15.431626070481459,47.101343259663984],"bbox":[15.431626070481459,47.101343259663984,15.431626070481459,47.101343259663984]}},{"type":"Feature","properties":{"nummer":10598,"baumbezeichnung_botanisch":"Picea abies","baumbezeichnung_deutsch":"Rotfichte","baumtyp":"Nadel","altersklassifizierung":"mittel","bemerkung":null,"pflanzjahr":null,"entnahmejahr":null,"baumpatenschaft":null,"objectid":4589},"geometry":{"type":"Point","coordinates":[15.424827821490066,47.10752379188111],"bbox":[15.424827821490066,47.10752379188111,15.424827821490066,47.10752379188111]}},{"type":"Feature","properties":{"nummer":28280,"baumbezeichnung_botanisch":"Aesculus x carnea","baumbezeichnung_deutsch":"Rotblühende Roßkastanie","baumtyp":"Laub","altersklassifizierung":"jung","bemerkung":null,"pflanzjahr":"2008","entnahmejahr":null,"baumpatenschaft":null,"objectid":11512},"geometry":{"type":"Point","coordinates":[15.431048772585287,47.101760669908174],"bbox":[15.431048772585287,47.101760669908174,15.431048772585287,47.101760669908174]}},{"type":"Feature","properties":{"nummer":18677,"baumbezeichnung_botanisch":"Fraxinus excelsior","baumbezeichnung_deutsch":"Esche","baumtyp":"Laub","altersklassifizierung":"mittel","bemerkung":null,"pflanzjahr":null,"entnahmejahr":null,"baumpatenschaft":null,"objectid":6742},"geometry":{"type":"Point","coordinates":[15.425731048695896,47.10155874401853],"bbox":[15.425731048695896,47.10155874401853,15.425731048695896,47.10155874401853]}},{"type":"Feature","properties":{"nummer":29434,"baumbezeichnung_botanisch":"Pyrus 'Frucht'","baumbezeichnung_deutsch":"Fruchtbirne","baumtyp":"Laub","altersklassifizierung":"jung","bemerkung":null,"pflanzjahr":"2009","entnahmejahr":null,"baumpatenschaft":null,"objectid":7614},"geometry":{"type":"Point","coordinates":[15.431620883162198,47.101424044581115],"bbox":[15.431620883162198,47.101424044581115,15.431620883162198,47.101424044581115]}},{"type":"Feature","properties":{"nummer":29435,"baumbezeichnung_botanisch":"Pyrus 'Frucht'","baumbezeichnung_deutsch":"Fruchtbirne","baumtyp":"Laub","altersklassifizierung":"jung","bemerkung":null,"pflanzjahr":"2009","entnahmejahr":null,"baumpatenschaft":null,"objectid":7615},"geometry":{"type":"Point","coordinates":[15.431619337589684,47.10151528801474],"bbox":[15.431619337589684,47.10151528801474,15.431619337589684,47.10151528801474]}},{"type":"Feature","properties":{"nummer":29433,"baumbezeichnung_botanisch":"Pyrus 'Frucht'","baumbezeichnung_deutsch":"Fruchtbirne","baumtyp":"Laub","altersklassifizierung":"jung","bemerkung":null,"pflanzjahr":"2009","entnahmejahr":"2013","baumpatenschaft":null,"objectid":7619},"geometry":{"type":"Point","coordinates":[15.431636222975692,47.101194723692394],"bbox":[15.431636222975692,47.101194723692394,15.431636222975692,47.101194723692394]}},{"type":"Feature","properties":{"nummer":28282,"baumbezeichnung_botanisch":"Celtis sp.","baumbezeichnung_deutsch":"Zürgelbaum","baumtyp":"Laub","altersklassifizierung":"jung","bemerkung":null,"pflanzjahr":"2008","entnahmejahr":null,"baumpatenschaft":null,"objectid":17522},"geometry":{"type":"Point","coordinates":[15.43115751948075,47.10166032331054],"bbox":[15.43115751948075,47.10166032331054,15.43115751948075,47.10166032331054]}},{"type":"Feature","properties":{"nummer":27075,"baumbezeichnung_botanisch":"Picea abies","baumbezeichnung_deutsch":"Rotfichte","baumtyp":"Nadel","altersklassifizierung":"mittel","bemerkung":null,"pflanzjahr":null,"entnahmejahr":null,"baumpatenschaft":null,"objectid":17524},"geometry":{"type":"Point","coordinates":[15.43099530909937,47.100992435636904],"bbox":[15.43099530909937,47.100992435636904,15.43099530909937,47.100992435636904]}},{"type":"Feature","properties":{"nummer":28283,"baumbezeichnung_botanisch":"Carpinus betulus 'Fastigiata'","baumbezeichnung_deutsch":"Säulenhainbuche","baumtyp":"Laub","altersklassifizierung":"jung","bemerkung":null,"pflanzjahr":"2008","entnahmejahr":null,"baumpatenschaft":null,"objectid":17534},"geometry":{"type":"Point","coordinates":[15.431074368305383,47.10097933220089],"bbox":[15.431074368305383,47.10097933220089,15.431074368305383,47.10097933220089]}},{"type":"Feature","properties":{"nummer":28284,"baumbezeichnung_botanisch":"Carpinus betulus 'Fastigiata'","baumbezeichnung_deutsch":"Säulenhainbuche","baumtyp":"Laub","altersklassifizierung":"jung","bemerkung":null,"pflanzjahr":"2008","entnahmejahr":null,"baumpatenschaft":null,"objectid":17535},"geometry":{"type":"Point","coordinates":[15.431189535459122,47.10098586507221],"bbox":[15.431189535459122,47.10098586507221,15.431189535459122,47.10098586507221]}},{"type":"Feature","properties":{"nummer":27073,"baumbezeichnung_botanisch":"Prunus sp.","baumbezeichnung_deutsch":"Kirsche","baumtyp":"Laub","altersklassifizierung":"jung","bemerkung":null,"pflanzjahr":null,"entnahmejahr":null,"baumpatenschaft":null,"objectid":17542},"geometry":{"type":"Point","coordinates":[15.431629980037878,47.10169829171848],"bbox":[15.431629980037878,47.10169829171848,15.431629980037878,47.10169829171848]}},{"type":"Feature","properties":{"nummer":27074,"baumbezeichnung_botanisch":"Acer platanoides","baumbezeichnung_deutsch":"Spitzahorn","baumtyp":"Laub","altersklassifizierung":"jung","bemerkung":null,"pflanzjahr":null,"entnahmejahr":null,"baumpatenschaft":null,"objectid":17543},"geometry":{"type":"Point","coordinates":[15.431560109387146,47.101765530135204],"bbox":[15.431560109387146,47.101765530135204,15.431560109387146,47.101765530135204]}},{"type":"Feature","properties":{"nummer":28281,"baumbezeichnung_botanisch":"Aesculus flava","baumbezeichnung_deutsch":"Gelbe Pavie","baumtyp":"Laub","altersklassifizierung":"jung","bemerkung":null,"pflanzjahr":"2008","entnahmejahr":null,"baumpatenschaft":null,"objectid":17544},"geometry":{"type":"Point","coordinates":[15.431192902336816,47.10175899790224],"bbox":[15.431192902336816,47.10175899790224,15.431192902336816,47.10175899790224]}},{"type":"Feature","properties":{"nummer":27065,"baumbezeichnung_botanisch":"Pyrus communis","baumbezeichnung_deutsch":"Gemeine Birne","baumtyp":"Laub","altersklassifizierung":"alt","bemerkung":null,"pflanzjahr":null,"entnahmejahr":null,"baumpatenschaft":null,"objectid":17198},"geometry":{"type":"Point","coordinates":[15.431665026140816,47.10095790200925],"bbox":[15.431665026140816,47.10095790200925,15.431665026140816,47.10095790200925]}},{"type":"Feature","properties":{"nummer":10597,"baumbezeichnung_botanisch":"Picea abies","baumbezeichnung_deutsch":"Rotfichte","baumtyp":"Nadel","altersklassifizierung":"mittel","bemerkung":null,"pflanzjahr":null,"entnahmejahr":null,"baumpatenschaft":null,"objectid":21730},"geometry":{"type":"Point","coordinates":[15.424846592516802,47.10751856220903],"bbox":[15.424846592516802,47.10751856220903,15.424846592516802,47.10751856220903]}},{"type":"Feature","properties":{"nummer":10596,"baumbezeichnung_botanisch":"Picea abies","baumbezeichnung_deutsch":"Rotfichte","baumtyp":"Nadel","altersklassifizierung":"mittel","bemerkung":null,"pflanzjahr":null,"entnahmejahr":null,"baumpatenschaft":null,"objectid":28444},"geometry":{"type":"Point","coordinates":[15.424844768616671,47.1075042365912],"bbox":[15.424844768616671,47.1075042365912,15.424844768616671,47.1075042365912]}}]}