{"type":"FeatureCollection","features":[{"type":"Feature","properties":{"nummer":27256,"baumbezeichnung_botanisch":"Castanea sativa","baumbezeichnung_deutsch":"Eßkastanie","baumtyp":"Laub","bemerkung":null,"pflanzjahr":null,"entnahmejahr":null,"marker-size":"small","marker-symbol":"park2","marker-color":"#A3DDAD"},"geometry":{"type":"Point","coordinates":[15.42176770274581,47.10106009905177],"bbox":[15.42176770274581,47.10106009905177,15.42176770274581,47.10106009905177]}},{"type":"Feature","properties":{"nummer":27259,"baumbezeichnung_botanisch":"Prunus sp.","baumbezeichnung_deutsch":"Kirsche","baumtyp":"Laub","bemerkung":null,"pflanzjahr":null,"entnahmejahr":null,"marker-size":"small","marker-symbol":"park2","marker-color":"#A3DDAD"},"geometry":{"type":"Point","coordinates":[15.42165365729929,47.10107689072066],"bbox":[15.42165365729929,47.10107689072066,15.42165365729929,47.10107689072066]}},{"type":"Feature","properties":{"nummer":13,"baumbezeichnung_botanisch":"Prunus serrulata 'Amanogawa'","baumbezeichnung_deutsch":"Japanische Säulenkirsche","baumtyp":"Laub","bemerkung":null,"pflanzjahr":"2000","entnahmejahr":null,"marker-size":"small","marker-symbol":"park2","marker-color":"#A3DDAD"},"geometry":{"type":"Point","coordinates":[15.42129460120638,47.10113386268514],"bbox":[15.42129460120638,47.10113386268514,15.42129460120638,47.10113386268514]}},{"type":"Feature","properties":{"nummer":20721,"baumbezeichnung_botanisch":"Prunus serrulata 'Amanogawa'","baumbezeichnung_deutsch":"Japanische Säulenkirsche","baumtyp":"Laub","bemerkung":null,"pflanzjahr":"2000","entnahmejahr":null,"marker-size":"small","marker-symbol":"park2","marker-color":"#A3DDAD"},"geometry":{"type":"Point","coordinates":[15.42130308514873,47.10124087078449],"bbox":[15.42130308514873,47.10124087078449,15.42130308514873,47.10124087078449]}},{"type":"Feature","properties":{"nummer":7041,"baumbezeichnung_botanisch":"Prunus serrulata 'Amanogawa'","baumbezeichnung_deutsch":"Japanische Säulenkirsche","baumtyp":"Laub","bemerkung":null,"pflanzjahr":"2000","entnahmejahr":null,"marker-size":"small","marker-symbol":"park2","marker-color":"#A3DDAD"},"geometry":{"type":"Point","coordinates":[15.42132346058753,47.10138801622416],"bbox":[15.42132346058753,47.10138801622416,15.42132346058753,47.10138801622416]}},{"type":"Feature","properties":{"nummer":23843,"baumbezeichnung_botanisch":"Prunus serrulata 'Amanogawa'","baumbezeichnung_deutsch":"Japanische Säulenkirsche","baumtyp":"Laub","bemerkung":null,"pflanzjahr":"2000","entnahmejahr":null,"marker-size":"small","marker-symbol":"park2","marker-color":"#A3DDAD"},"geometry":{"type":"Point","coordinates":[15.42134144655263,47.10150409346441],"bbox":[15.42134144655263,47.10150409346441,15.42134144655263,47.10150409346441]}},{"type":"Feature","properties":{"nummer":4969,"baumbezeichnung_botanisch":"Prunus serrulata 'Amanogawa'","baumbezeichnung_deutsch":"Japanische Säulenkirsche","baumtyp":"Laub","bemerkung":null,"pflanzjahr":"2000","entnahmejahr":null,"marker-size":"small","marker-symbol":"park2","marker-color":"#A3DDAD"},"geometry":{"type":"Point","coordinates":[15.42135484427752,47.1016517786282],"bbox":[15.42135484427752,47.1016517786282,15.42135484427752,47.1016517786282]}},{"type":"Feature","properties":{"nummer":4000,"baumbezeichnung_botanisch":"Prunus serrulata 'Amanogawa'","baumbezeichnung_deutsch":"Japanische Säulenkirsche","baumtyp":"Laub","bemerkung":null,"pflanzjahr":"2000","entnahmejahr":null,"marker-size":"small","marker-symbol":"park2","marker-color":"#A3DDAD"},"geometry":{"type":"Point","coordinates":[15.42136922525023,47.10180589680246],"bbox":[15.42136922525023,47.10180589680246,15.42136922525023,47.10180589680246]}},{"type":"Feature","properties":{"nummer":27239,"baumbezeichnung_botanisch":"Betula pendula","baumbezeichnung_deutsch":"Sandbirke, Weißbirke","baumtyp":"Laub","bemerkung":null,"pflanzjahr":null,"entnahmejahr":null,"marker-size":"small","marker-symbol":"park2","marker-color":"#A3DDAD"},"geometry":{"type":"Point","coordinates":[15.42143698054088,47.10100835684417],"bbox":[15.42143698054088,47.10100835684417,15.42143698054088,47.10100835684417]}},{"type":"Feature","properties":{"nummer":27258,"baumbezeichnung_botanisch":"Larix decidua","baumbezeichnung_deutsch":"Europäische Lärche","baumtyp":"Nadel","bemerkung":null,"pflanzjahr":null,"entnahmejahr":null,"marker-size":"small","marker-symbol":"park","marker-color":"#3BB451"},"geometry":{"type":"Point","coordinates":[15.42183815498074,47.10107396519146],"bbox":[15.42183815498074,47.10107396519146,15.42183815498074,47.10107396519146]}},{"type":"Feature","properties":{"nummer":27251,"baumbezeichnung_botanisch":"Juglans regia","baumbezeichnung_deutsch":"Walnuß","baumtyp":"Laub","bemerkung":null,"pflanzjahr":"2011","entnahmejahr":null,"marker-size":"small","marker-symbol":"park2","marker-color":"#A3DDAD"},"geometry":{"type":"Point","coordinates":[15.42146175083981,47.10105537120581],"bbox":[15.42146175083981,47.10105537120581,15.42146175083981,47.10105537120581]}}]}