{"type":"FeatureCollection","features":[{"type":"Feature","properties":{"nummer":22485,"baumbezeichnung_botanisch":"Picea pungens 'Glauca'","baumbezeichnung_deutsch":"Blaue Stechfichte","baumtyp":"Laub","bemerkung":null,"pflanzjahr":null,"entnahmejahr":null,"marker-size":"small","marker-symbol":"park2","marker-color":"#A3DDAD"},"geometry":{"type":"Point","coordinates":[15.42172388383514,47.06377347288809],"bbox":[15.42172388383514,47.06377347288809,15.42172388383514,47.06377347288809]}},{"type":"Feature","properties":{"nummer":19156,"baumbezeichnung_botanisch":"Picea sp.","baumbezeichnung_deutsch":"Fichte","baumtyp":"Nadel","bemerkung":null,"pflanzjahr":null,"entnahmejahr":null,"marker-size":"small","marker-symbol":"park","marker-color":"#3BB451"},"geometry":{"type":"Point","coordinates":[15.421710250121,47.0637368232027],"bbox":[15.421710250121,47.0637368232027,15.421710250121,47.0637368232027]}},{"type":"Feature","properties":{"nummer":19593,"baumbezeichnung_botanisch":"Picea pungens 'Glauca'","baumbezeichnung_deutsch":"Blaue Stechfichte","baumtyp":"Laub","bemerkung":null,"pflanzjahr":null,"entnahmejahr":null,"marker-size":"small","marker-symbol":"park2","marker-color":"#A3DDAD"},"geometry":{"type":"Point","coordinates":[15.42167589710088,47.06366103226923],"bbox":[15.42167589710088,47.06366103226923,15.42167589710088,47.06366103226923]}},{"type":"Feature","properties":{"nummer":21373,"baumbezeichnung_botanisch":"Betula pendula","baumbezeichnung_deutsch":"Sandbirke, Weißbirke","baumtyp":"Laub","bemerkung":null,"pflanzjahr":null,"entnahmejahr":null,"marker-size":"small","marker-symbol":"park2","marker-color":"#A3DDAD"},"geometry":{"type":"Point","coordinates":[15.4216622217773,47.06362681901926],"bbox":[15.4216622217773,47.06362681901926,15.4216622217773,47.06362681901926]}},{"type":"Feature","properties":{"nummer":21249,"baumbezeichnung_botanisch":"Betula pendula","baumbezeichnung_deutsch":"Sandbirke, Weißbirke","baumtyp":"Laub","bemerkung":null,"pflanzjahr":null,"entnahmejahr":null,"marker-size":"small","marker-symbol":"park2","marker-color":"#A3DDAD"},"geometry":{"type":"Point","coordinates":[15.42164498219019,47.0635925764045],"bbox":[15.42164498219019,47.0635925764045,15.42164498219019,47.0635925764045]}},{"type":"Feature","properties":{"nummer":14236,"baumbezeichnung_botanisch":"Carpinus betulus","baumbezeichnung_deutsch":"Hain - oder Weißbuche","baumtyp":"Laub","bemerkung":null,"pflanzjahr":null,"entnahmejahr":null,"marker-size":"small","marker-symbol":"park2","marker-color":"#A3DDAD"},"geometry":{"type":"Point","coordinates":[15.42160004168171,47.06371889108821],"bbox":[15.42160004168171,47.06371889108821,15.42160004168171,47.06371889108821]}},{"type":"Feature","properties":{"nummer":16865,"baumbezeichnung_botanisch":"Carpinus betulus","baumbezeichnung_deutsch":"Hain - oder Weißbuche","baumtyp":"Laub","bemerkung":null,"pflanzjahr":null,"entnahmejahr":null,"marker-size":"small","marker-symbol":"park2","marker-color":"#A3DDAD"},"geometry":{"type":"Point","coordinates":[15.42157269245219,47.06365046368076],"bbox":[15.42157269245219,47.06365046368076,15.42157269245219,47.06365046368076]}},{"type":"Feature","properties":{"nummer":5973,"baumbezeichnung_botanisch":"Larix decidua","baumbezeichnung_deutsch":"Europäische Lärche","baumtyp":"Nadel","bemerkung":null,"pflanzjahr":null,"entnahmejahr":null,"marker-size":"small","marker-symbol":"park","marker-color":"#3BB451"},"geometry":{"type":"Point","coordinates":[15.42125676383787,47.06377948632987],"bbox":[15.42125676383787,47.06377948632987,15.42125676383787,47.06377948632987]}},{"type":"Feature","properties":{"nummer":21374,"baumbezeichnung_botanisch":"Larix decidua","baumbezeichnung_deutsch":"Europäische Lärche","baumtyp":"Nadel","bemerkung":null,"pflanzjahr":null,"entnahmejahr":null,"marker-size":"small","marker-symbol":"park","marker-color":"#3BB451"},"geometry":{"type":"Point","coordinates":[15.42130310247701,47.06377985652856],"bbox":[15.42130310247701,47.06377985652856,15.42130310247701,47.06377985652856]}},{"type":"Feature","properties":{"nummer":16297,"baumbezeichnung_botanisch":"Pinus nigra","baumbezeichnung_deutsch":"Schwarzkiefer","baumtyp":"Nadel","bemerkung":null,"pflanzjahr":null,"entnahmejahr":null,"marker-size":"small","marker-symbol":"park","marker-color":"#3BB451"},"geometry":{"type":"Point","coordinates":[15.42131160632024,47.06369953520306],"bbox":[15.42131160632024,47.06369953520306,15.42131160632024,47.06369953520306]}},{"type":"Feature","properties":{"nummer":9844,"baumbezeichnung_botanisch":"Sorbus aucuparia","baumbezeichnung_deutsch":"Eberesche","baumtyp":"Laub","bemerkung":null,"pflanzjahr":null,"entnahmejahr":null,"marker-size":"small","marker-symbol":"park2","marker-color":"#A3DDAD"},"geometry":{"type":"Point","coordinates":[15.42135567239191,47.06362437061302],"bbox":[15.42135567239191,47.06362437061302,15.42135567239191,47.06362437061302]}},{"type":"Feature","properties":{"nummer":13173,"baumbezeichnung_botanisch":"Malus sp.","baumbezeichnung_deutsch":"Apfelbaum","baumtyp":"Laub","bemerkung":null,"pflanzjahr":null,"entnahmejahr":null,"marker-size":"small","marker-symbol":"park2","marker-color":"#A3DDAD"},"geometry":{"type":"Point","coordinates":[15.42136351070892,47.06358302065929],"bbox":[15.42136351070892,47.06358302065929,15.42136351070892,47.06358302065929]}},{"type":"Feature","properties":{"nummer":9177,"baumbezeichnung_botanisch":"Betula pendula","baumbezeichnung_deutsch":"Sandbirke, Weißbirke","baumtyp":"Laub","bemerkung":null,"pflanzjahr":null,"entnahmejahr":null,"marker-size":"small","marker-symbol":"park2","marker-color":"#A3DDAD"},"geometry":{"type":"Point","coordinates":[15.42116748282949,47.06378851741045],"bbox":[15.42116748282949,47.06378851741045,15.42116748282949,47.06378851741045]}},{"type":"Feature","properties":{"nummer":13174,"baumbezeichnung_botanisch":"Juglans regia","baumbezeichnung_deutsch":"Walnuß","baumtyp":"Laub","bemerkung":null,"pflanzjahr":null,"entnahmejahr":null,"marker-size":"small","marker-symbol":"park2","marker-color":"#A3DDAD"},"geometry":{"type":"Point","coordinates":[15.42111136696151,47.06373447619242],"bbox":[15.42111136696151,47.06373447619242,15.42111136696151,47.06373447619242]}},{"type":"Feature","properties":{"nummer":12173,"baumbezeichnung_botanisch":"Abies alba","baumbezeichnung_deutsch":"Weißtanne","baumtyp":"Nadel","bemerkung":null,"pflanzjahr":null,"entnahmejahr":null,"marker-size":"small","marker-symbol":"park","marker-color":"#3BB451"},"geometry":{"type":"Point","coordinates":[15.42118117799141,47.06361323216347],"bbox":[15.42118117799141,47.06361323216347,15.42118117799141,47.06361323216347]}},{"type":"Feature","properties":{"nummer":20107,"baumbezeichnung_botanisch":"Betula pendula","baumbezeichnung_deutsch":"Sandbirke, Weißbirke","baumtyp":"Laub","bemerkung":null,"pflanzjahr":null,"entnahmejahr":null,"marker-size":"small","marker-symbol":"park2","marker-color":"#A3DDAD"},"geometry":{"type":"Point","coordinates":[15.42115660040898,47.06359111111816],"bbox":[15.42115660040898,47.06359111111816,15.42115660040898,47.06359111111816]}},{"type":"Feature","properties":{"nummer":4141,"baumbezeichnung_botanisch":"Picea pungens 'Glauca'","baumbezeichnung_deutsch":"Blaue Stechfichte","baumtyp":"Laub","bemerkung":null,"pflanzjahr":null,"entnahmejahr":null,"marker-size":"small","marker-symbol":"park2","marker-color":"#A3DDAD"},"geometry":{"type":"Point","coordinates":[15.42116981690609,47.06365211808329],"bbox":[15.42116981690609,47.06365211808329,15.42116981690609,47.06365211808329]}},{"type":"Feature","properties":{"nummer":23826,"baumbezeichnung_botanisch":"Picea abies","baumbezeichnung_deutsch":"Rotfichte","baumtyp":"Nadel","bemerkung":null,"pflanzjahr":null,"entnahmejahr":null,"marker-size":"small","marker-symbol":"park","marker-color":"#3BB451"},"geometry":{"type":"Point","coordinates":[15.42109915090022,47.06361501262457],"bbox":[15.42109915090022,47.06361501262457,15.42109915090022,47.06361501262457]}}]}