{"type":"FeatureCollection","features":[{"type":"Feature","properties":{"nummer":13341,"baumbezeichnung_botanisch":"Aesculus hippocastanum","baumbezeichnung_deutsch":"Gemeine Roßkastanie","baumtyp":"Laub","altersklassifizierung":"mittel","bemerkung":null,"pflanzjahr":null,"entnahmejahr":null,"baumpatenschaft":null,"objectid":17918},"geometry":{"type":"Point","coordinates":[15.428873706975192,47.08120323822368],"bbox":[15.428873706975192,47.08120323822368,15.428873706975192,47.08120323822368]}},{"type":"Feature","properties":{"nummer":31418,"baumbezeichnung_botanisch":"Aesculus flava","baumbezeichnung_deutsch":"Gelbe Pavie","baumtyp":"Laub","altersklassifizierung":"jung","bemerkung":null,"pflanzjahr":"2013","entnahmejahr":null,"baumpatenschaft":null,"objectid":28248},"geometry":{"type":"Point","coordinates":[15.429327739913056,47.080925891042924],"bbox":[15.429327739913056,47.080925891042924,15.429327739913056,47.080925891042924]}},{"type":"Feature","properties":{"nummer":31419,"baumbezeichnung_botanisch":"Aesculus flava","baumbezeichnung_deutsch":"Gelbe Pavie","baumtyp":"Laub","altersklassifizierung":"jung","bemerkung":null,"pflanzjahr":"2013","entnahmejahr":null,"baumpatenschaft":null,"objectid":28249},"geometry":{"type":"Point","coordinates":[15.429098110850894,47.08107344479621],"bbox":[15.429098110850894,47.08107344479621,15.429098110850894,47.08107344479621]}},{"type":"Feature","properties":{"nummer":31420,"baumbezeichnung_botanisch":"Aesculus flava","baumbezeichnung_deutsch":"Gelbe Pavie","baumtyp":"Laub","altersklassifizierung":"jung","bemerkung":null,"pflanzjahr":"2013","entnahmejahr":null,"baumpatenschaft":null,"objectid":28250},"geometry":{"type":"Point","coordinates":[15.42898740338218,47.08113874468915],"bbox":[15.42898740338218,47.08113874468915,15.42898740338218,47.08113874468915]}},{"type":"Feature","properties":{"nummer":31112,"baumbezeichnung_botanisch":"Quercus robur 'Fastigiata'","baumbezeichnung_deutsch":"Säulenstieleiche","baumtyp":"Laub","altersklassifizierung":"jung","bemerkung":null,"pflanzjahr":null,"entnahmejahr":null,"baumpatenschaft":null,"objectid":28992},"geometry":{"type":"Point","coordinates":[15.428398200417073,47.08020512807823],"bbox":[15.428398200417073,47.08020512807823,15.428398200417073,47.08020512807823]}},{"type":"Feature","properties":{"nummer":13342,"baumbezeichnung_botanisch":"Aesculus hippocastanum","baumbezeichnung_deutsch":"Gemeine Roßkastanie","baumtyp":"Laub","altersklassifizierung":"mittel","bemerkung":null,"pflanzjahr":null,"entnahmejahr":null,"baumpatenschaft":null,"objectid":25678},"geometry":{"type":"Point","coordinates":[15.428738439403137,47.08128797055925],"bbox":[15.428738439403137,47.08128797055925,15.428738439403137,47.08128797055925]}},{"type":"Feature","properties":{"nummer":30339,"baumbezeichnung_botanisch":"Quercus cerris","baumbezeichnung_deutsch":"Zerr - Eiche","baumtyp":"Laub","altersklassifizierung":"jung","bemerkung":null,"pflanzjahr":"2011","entnahmejahr":null,"baumpatenschaft":null,"objectid":27349},"geometry":{"type":"Point","coordinates":[15.428092369736152,47.078343258422905],"bbox":[15.428092369736152,47.078343258422905,15.428092369736152,47.078343258422905]}},{"type":"Feature","properties":{"nummer":30248,"baumbezeichnung_botanisch":"Platanus x acerifolia","baumbezeichnung_deutsch":"Platane","baumtyp":"Laub","altersklassifizierung":"jung","bemerkung":null,"pflanzjahr":"2011","entnahmejahr":null,"baumpatenschaft":null,"objectid":27430},"geometry":{"type":"Point","coordinates":[15.42755372800212,47.0787254139905],"bbox":[15.42755372800212,47.0787254139905,15.42755372800212,47.0787254139905]}}]}