{"type":"FeatureCollection","features":[{"type":"Feature","properties":{"nummer":25030,"baumbezeichnung_botanisch":"Acer pseudoplatanus","baumbezeichnung_deutsch":"Bergahorn","baumtyp":"Laub","bemerkung":null,"pflanzjahr":null,"entnahmejahr":null,"marker-size":"small","marker-symbol":"park2","marker-color":"#A3DDAD"},"geometry":{"type":"Point","coordinates":[15.45088759175266,47.07100071982347],"bbox":[15.45088759175266,47.07100071982347,15.45088759175266,47.07100071982347]}},{"type":"Feature","properties":{"nummer":17766,"baumbezeichnung_botanisch":"Tilia platyphyllos","baumbezeichnung_deutsch":"Sommerlinde","baumtyp":"Laub","bemerkung":null,"pflanzjahr":null,"entnahmejahr":null,"marker-size":"small","marker-symbol":"park2","marker-color":"#A3DDAD"},"geometry":{"type":"Point","coordinates":[15.45086241338718,47.07102736743155],"bbox":[15.45086241338718,47.07102736743155,15.45086241338718,47.07102736743155]}},{"type":"Feature","properties":{"nummer":20560,"baumbezeichnung_botanisch":"Acer platanoides","baumbezeichnung_deutsch":"Spitzahorn","baumtyp":"Laub","bemerkung":null,"pflanzjahr":null,"entnahmejahr":null,"marker-size":"small","marker-symbol":"park2","marker-color":"#A3DDAD"},"geometry":{"type":"Point","coordinates":[15.45080426457493,47.07102393602663],"bbox":[15.45080426457493,47.07102393602663,15.45080426457493,47.07102393602663]}},{"type":"Feature","properties":{"nummer":25314,"baumbezeichnung_botanisch":"Catalpa bignonioides","baumbezeichnung_deutsch":"Trompetenbaum","baumtyp":"Laub","bemerkung":null,"pflanzjahr":null,"entnahmejahr":null,"marker-size":"small","marker-symbol":"park2","marker-color":"#A3DDAD"},"geometry":{"type":"Point","coordinates":[15.45075654776678,47.0710056713885],"bbox":[15.45075654776678,47.0710056713885,15.45075654776678,47.0710056713885]}},{"type":"Feature","properties":{"nummer":5316,"baumbezeichnung_botanisch":"Ailanthus altissima","baumbezeichnung_deutsch":"Götterbaum","baumtyp":"Laub","bemerkung":null,"pflanzjahr":null,"entnahmejahr":null,"marker-size":"small","marker-symbol":"park2","marker-color":"#A3DDAD"},"geometry":{"type":"Point","coordinates":[15.45068498904035,47.07102223037489],"bbox":[15.45068498904035,47.07102223037489,15.45068498904035,47.07102223037489]}},{"type":"Feature","properties":{"nummer":9968,"baumbezeichnung_botanisch":"Tilia platyphyllos","baumbezeichnung_deutsch":"Sommerlinde","baumtyp":"Laub","bemerkung":null,"pflanzjahr":null,"entnahmejahr":null,"marker-size":"small","marker-symbol":"park2","marker-color":"#A3DDAD"},"geometry":{"type":"Point","coordinates":[15.45062493832194,47.07095693393843],"bbox":[15.45062493832194,47.07095693393843,15.45062493832194,47.07095693393843]}},{"type":"Feature","properties":{"nummer":5237,"baumbezeichnung_botanisch":"Cornus mas","baumbezeichnung_deutsch":"Kornelkirsche","baumtyp":"Laub","bemerkung":null,"pflanzjahr":null,"entnahmejahr":null,"marker-size":"small","marker-symbol":"park2","marker-color":"#A3DDAD"},"geometry":{"type":"Point","coordinates":[15.4505600698016,47.07077906354569],"bbox":[15.4505600698016,47.07077906354569,15.4505600698016,47.07077906354569]}},{"type":"Feature","properties":{"nummer":5223,"baumbezeichnung_botanisch":"Ulmus sp.","baumbezeichnung_deutsch":"Ulme","baumtyp":"Laub","bemerkung":null,"pflanzjahr":null,"entnahmejahr":null,"marker-size":"small","marker-symbol":"park2","marker-color":"#A3DDAD"},"geometry":{"type":"Point","coordinates":[15.45052866055912,47.07077802638345],"bbox":[15.45052866055912,47.07077802638345,15.45052866055912,47.07077802638345]}},{"type":"Feature","properties":{"nummer":5222,"baumbezeichnung_botanisch":"Acer pseudoplatanus","baumbezeichnung_deutsch":"Bergahorn","baumtyp":"Laub","bemerkung":null,"pflanzjahr":null,"entnahmejahr":null,"marker-size":"small","marker-symbol":"park2","marker-color":"#A3DDAD"},"geometry":{"type":"Point","coordinates":[15.45051653225932,47.07075466858913],"bbox":[15.45051653225932,47.07075466858913,15.45051653225932,47.07075466858913]}},{"type":"Feature","properties":{"nummer":5221,"baumbezeichnung_botanisch":"Taxus baccata","baumbezeichnung_deutsch":"Gemeine Eibe","baumtyp":"Nadel","bemerkung":null,"pflanzjahr":null,"entnahmejahr":null,"marker-size":"small","marker-symbol":"park","marker-color":"#3BB451"},"geometry":{"type":"Point","coordinates":[15.45050721300817,47.07073730165913],"bbox":[15.45050721300817,47.07073730165913,15.45050721300817,47.07073730165913]}},{"type":"Feature","properties":{"nummer":16053,"baumbezeichnung_botanisch":"Acer platanoides","baumbezeichnung_deutsch":"Spitzahorn","baumtyp":"Laub","bemerkung":null,"pflanzjahr":null,"entnahmejahr":null,"marker-size":"small","marker-symbol":"park2","marker-color":"#A3DDAD"},"geometry":{"type":"Point","coordinates":[15.45078038450399,47.07070859854957],"bbox":[15.45078038450399,47.07070859854957,15.45078038450399,47.07070859854957]}},{"type":"Feature","properties":{"nummer":26427,"baumbezeichnung_botanisch":"Acer platanoides","baumbezeichnung_deutsch":"Spitzahorn","baumtyp":"Laub","bemerkung":null,"pflanzjahr":null,"entnahmejahr":null,"marker-size":"small","marker-symbol":"park2","marker-color":"#A3DDAD"},"geometry":{"type":"Point","coordinates":[15.45081402969242,47.07069792243211],"bbox":[15.45081402969242,47.07069792243211,15.45081402969242,47.07069792243211]}},{"type":"Feature","properties":{"nummer":5252,"baumbezeichnung_botanisch":"Taxus baccata","baumbezeichnung_deutsch":"Gemeine Eibe","baumtyp":"Nadel","bemerkung":null,"pflanzjahr":null,"entnahmejahr":null,"marker-size":"small","marker-symbol":"park","marker-color":"#3BB451"},"geometry":{"type":"Point","coordinates":[15.45068750136372,47.07081563529253],"bbox":[15.45068750136372,47.07081563529253,15.45068750136372,47.07081563529253]}},{"type":"Feature","properties":{"nummer":5254,"baumbezeichnung_botanisch":"Taxus baccata","baumbezeichnung_deutsch":"Gemeine Eibe","baumtyp":"Nadel","bemerkung":null,"pflanzjahr":null,"entnahmejahr":null,"marker-size":"small","marker-symbol":"park","marker-color":"#3BB451"},"geometry":{"type":"Point","coordinates":[15.45066263583182,47.07082339648763],"bbox":[15.45066263583182,47.07082339648763,15.45066263583182,47.07082339648763]}},{"type":"Feature","properties":{"nummer":5253,"baumbezeichnung_botanisch":"Carpinus betulus 'Pendula'","baumbezeichnung_deutsch":"Hängehainbuche","baumtyp":"Laub","bemerkung":null,"pflanzjahr":null,"entnahmejahr":null,"marker-size":"small","marker-symbol":"park2","marker-color":"#A3DDAD"},"geometry":{"type":"Point","coordinates":[15.45068359722632,47.07078776800157],"bbox":[15.45068359722632,47.07078776800157,15.45068359722632,47.07078776800157]}},{"type":"Feature","properties":{"nummer":15849,"baumbezeichnung_botanisch":"Taxus baccata","baumbezeichnung_deutsch":"Gemeine Eibe","baumtyp":"Nadel","bemerkung":null,"pflanzjahr":null,"entnahmejahr":null,"marker-size":"small","marker-symbol":"park","marker-color":"#3BB451"},"geometry":{"type":"Point","coordinates":[15.45085525744346,47.07084438527467],"bbox":[15.45085525744346,47.07084438527467,15.45085525744346,47.07084438527467]}},{"type":"Feature","properties":{"nummer":20561,"baumbezeichnung_botanisch":"Taxus baccata","baumbezeichnung_deutsch":"Gemeine Eibe","baumtyp":"Nadel","bemerkung":null,"pflanzjahr":null,"entnahmejahr":null,"marker-size":"small","marker-symbol":"park","marker-color":"#3BB451"},"geometry":{"type":"Point","coordinates":[15.45082485200505,47.07083520190494],"bbox":[15.45082485200505,47.07083520190494,15.45082485200505,47.07083520190494]}},{"type":"Feature","properties":{"nummer":9808,"baumbezeichnung_botanisch":"Acer platanoides","baumbezeichnung_deutsch":"Spitzahorn","baumtyp":"Laub","bemerkung":null,"pflanzjahr":null,"entnahmejahr":null,"marker-size":"small","marker-symbol":"park2","marker-color":"#A3DDAD"},"geometry":{"type":"Point","coordinates":[15.45089356733864,47.07063988122108],"bbox":[15.45089356733864,47.07063988122108,15.45089356733864,47.07063988122108]}},{"type":"Feature","properties":{"nummer":5249,"baumbezeichnung_botanisch":"Acer pseudoplatanus","baumbezeichnung_deutsch":"Bergahorn","baumtyp":"Laub","bemerkung":null,"pflanzjahr":null,"entnahmejahr":null,"marker-size":"small","marker-symbol":"park2","marker-color":"#A3DDAD"},"geometry":{"type":"Point","coordinates":[15.45067575940337,47.07105198492796],"bbox":[15.45067575940337,47.07105198492796,15.45067575940337,47.07105198492796]}},{"type":"Feature","properties":{"nummer":29569,"baumbezeichnung_botanisch":"Tilia sp.","baumbezeichnung_deutsch":"Linde","baumtyp":"Laub","bemerkung":null,"pflanzjahr":null,"entnahmejahr":null,"marker-size":"small","marker-symbol":"park2","marker-color":"#A3DDAD"},"geometry":{"type":"Point","coordinates":[15.45064684527158,47.0709521326465],"bbox":[15.45064684527158,47.0709521326465,15.45064684527158,47.0709521326465]}},{"type":"Feature","properties":{"nummer":20109,"baumbezeichnung_botanisch":"Picea pungens","baumbezeichnung_deutsch":"Stechfichte","baumtyp":"Nadel","bemerkung":null,"pflanzjahr":null,"entnahmejahr":null,"marker-size":"small","marker-symbol":"park","marker-color":"#3BB451"},"geometry":{"type":"Point","coordinates":[15.45057740827011,47.07075176709862],"bbox":[15.45057740827011,47.07075176709862,15.45057740827011,47.07075176709862]}},{"type":"Feature","properties":{"nummer":1481,"baumbezeichnung_botanisch":"Acer pseudoplatanus","baumbezeichnung_deutsch":"Bergahorn","baumtyp":"Laub","bemerkung":null,"pflanzjahr":null,"entnahmejahr":null,"marker-size":"small","marker-symbol":"park2","marker-color":"#A3DDAD"},"geometry":{"type":"Point","coordinates":[15.45067121513478,47.07071073725913],"bbox":[15.45067121513478,47.07071073725913,15.45067121513478,47.07071073725913]}},{"type":"Feature","properties":{"nummer":17543,"baumbezeichnung_botanisch":"Prunus sp.","baumbezeichnung_deutsch":"Kirsche","baumtyp":"Laub","bemerkung":null,"pflanzjahr":null,"entnahmejahr":"2012","marker-size":"small","marker-symbol":"park2","marker-color":"#B3B3B3"},"geometry":{"type":"Point","coordinates":[15.45070338926764,47.07070104375715],"bbox":[15.45070338926764,47.07070104375715,15.45070338926764,47.07070104375715]}},{"type":"Feature","properties":{"nummer":1482,"baumbezeichnung_botanisch":"Acer pseudoplatanus","baumbezeichnung_deutsch":"Bergahorn","baumtyp":"Laub","bemerkung":null,"pflanzjahr":null,"entnahmejahr":null,"marker-size":"small","marker-symbol":"park2","marker-color":"#A3DDAD"},"geometry":{"type":"Point","coordinates":[15.45074550003562,47.07070634093063],"bbox":[15.45074550003562,47.07070634093063,15.45074550003562,47.07070634093063]}},{"type":"Feature","properties":{"nummer":23667,"baumbezeichnung_botanisch":"Sambucus nigra","baumbezeichnung_deutsch":"Schwarzer Hollunder","baumtyp":"Laub","bemerkung":null,"pflanzjahr":null,"entnahmejahr":null,"marker-size":"small","marker-symbol":"park2","marker-color":"#A3DDAD"},"geometry":{"type":"Point","coordinates":[15.45079503208063,47.07070274714793],"bbox":[15.45079503208063,47.07070274714793,15.45079503208063,47.07070274714793]}},{"type":"Feature","properties":{"nummer":16627,"baumbezeichnung_botanisch":"Syringa vulgaris","baumbezeichnung_deutsch":"Gemeiner Flieder","baumtyp":"Laub","bemerkung":null,"pflanzjahr":null,"entnahmejahr":null,"marker-size":"small","marker-symbol":"park2","marker-color":"#A3DDAD"},"geometry":{"type":"Point","coordinates":[15.45080340022765,47.07072468340324],"bbox":[15.45080340022765,47.07072468340324,15.45080340022765,47.07072468340324]}},{"type":"Feature","properties":{"nummer":22251,"baumbezeichnung_botanisch":"Larix decidua","baumbezeichnung_deutsch":"Europäische Lärche","baumtyp":"Nadel","bemerkung":null,"pflanzjahr":null,"entnahmejahr":null,"marker-size":"small","marker-symbol":"park","marker-color":"#3BB451"},"geometry":{"type":"Point","coordinates":[15.44965512798594,47.07028796957135],"bbox":[15.44965512798594,47.07028796957135,15.44965512798594,47.07028796957135]}},{"type":"Feature","properties":{"nummer":24891,"baumbezeichnung_botanisch":"Prunus persica","baumbezeichnung_deutsch":"Pfirsich","baumtyp":"Laub","bemerkung":null,"pflanzjahr":null,"entnahmejahr":null,"marker-size":"small","marker-symbol":"park2","marker-color":"#A3DDAD"},"geometry":{"type":"Point","coordinates":[15.44965709418015,47.07036970788838],"bbox":[15.44965709418015,47.07036970788838,15.44965709418015,47.07036970788838]}},{"type":"Feature","properties":{"nummer":5241,"baumbezeichnung_botanisch":"Aesculus sp.","baumbezeichnung_deutsch":"Rosskastanie","baumtyp":"Laub","bemerkung":null,"pflanzjahr":"2011","entnahmejahr":null,"marker-size":"small","marker-symbol":"park2","marker-color":"#A3DDAD"},"geometry":{"type":"Point","coordinates":[15.45056520978724,47.07082046181676],"bbox":[15.45056520978724,47.07082046181676,15.45056520978724,47.07082046181676]}}]}