{"type":"FeatureCollection","features":[{"type":"Feature","properties":{"nummer":15913,"baumbezeichnung_botanisch":"Acer pseudoplatanus","baumbezeichnung_deutsch":"Bergahorn","baumtyp":"Laub","bemerkung":null,"pflanzjahr":null,"entnahmejahr":null,"marker-size":"small","marker-symbol":"park2","marker-color":"#A3DDAD"},"geometry":{"type":"Point","coordinates":[15.42207073980235,47.08637510864297],"bbox":[15.42207073980235,47.08637510864297,15.42207073980235,47.08637510864297]}},{"type":"Feature","properties":{"nummer":7453,"baumbezeichnung_botanisch":"Acer pseudoplatanus","baumbezeichnung_deutsch":"Bergahorn","baumtyp":"Laub","bemerkung":null,"pflanzjahr":null,"entnahmejahr":null,"marker-size":"small","marker-symbol":"park2","marker-color":"#A3DDAD"},"geometry":{"type":"Point","coordinates":[15.42213132952944,47.08639530942465],"bbox":[15.42213132952944,47.08639530942465,15.42213132952944,47.08639530942465]}},{"type":"Feature","properties":{"nummer":17211,"baumbezeichnung_botanisch":"Acer pseudoplatanus","baumbezeichnung_deutsch":"Bergahorn","baumtyp":"Laub","bemerkung":null,"pflanzjahr":null,"entnahmejahr":null,"marker-size":"small","marker-symbol":"park2","marker-color":"#A3DDAD"},"geometry":{"type":"Point","coordinates":[15.42221685193413,47.08642304912519],"bbox":[15.42221685193413,47.08642304912519,15.42221685193413,47.08642304912519]}},{"type":"Feature","properties":{"nummer":14028,"baumbezeichnung_botanisch":"Platanus x acerifolia","baumbezeichnung_deutsch":"Platane","baumtyp":"Laub","bemerkung":null,"pflanzjahr":null,"entnahmejahr":null,"marker-size":"small","marker-symbol":"park2","marker-color":"#A3DDAD"},"geometry":{"type":"Point","coordinates":[15.42211220157403,47.08695374163843],"bbox":[15.42211220157403,47.08695374163843,15.42211220157403,47.08695374163843]}},{"type":"Feature","properties":{"nummer":13561,"baumbezeichnung_botanisch":"Acer negundo","baumbezeichnung_deutsch":"Eschenahorn","baumtyp":"Laub","bemerkung":"am westl. Stammfuß trockene Verletzungsstelle, leicht schräger Wuchs Richtung NO, am Kronenansatz auf Höhe des unteren Ansatzes nordseitig große Astungswunde mit weitreichender Höhlung, Gefahr des Bruches am Kronenansatz","pflanzjahr":null,"entnahmejahr":null,"marker-size":"small","marker-symbol":"park2","marker-color":"#A3DDAD"},"geometry":{"type":"Point","coordinates":[15.42223249754921,47.08685170723216],"bbox":[15.42223249754921,47.08685170723216,15.42223249754921,47.08685170723216]}},{"type":"Feature","properties":{"nummer":25486,"baumbezeichnung_botanisch":"Acer negundo","baumbezeichnung_deutsch":"Eschenahorn","baumtyp":"Laub","bemerkung":null,"pflanzjahr":null,"entnahmejahr":null,"marker-size":"small","marker-symbol":"park2","marker-color":"#A3DDAD"},"geometry":{"type":"Point","coordinates":[15.42227128888301,47.0867975705269],"bbox":[15.42227128888301,47.0867975705269,15.42227128888301,47.0867975705269]}},{"type":"Feature","properties":{"nummer":12606,"baumbezeichnung_botanisch":"Acer platanoides","baumbezeichnung_deutsch":"Spitzahorn","baumtyp":"Laub","bemerkung":null,"pflanzjahr":null,"entnahmejahr":null,"marker-size":"small","marker-symbol":"park2","marker-color":"#A3DDAD"},"geometry":{"type":"Point","coordinates":[15.42232013074493,47.08672544201006],"bbox":[15.42232013074493,47.08672544201006,15.42232013074493,47.08672544201006]}},{"type":"Feature","properties":{"nummer":3063,"baumbezeichnung_botanisch":"Aesculus hippocastanum","baumbezeichnung_deutsch":"Gemeine Roßkastanie","baumtyp":"Laub","bemerkung":null,"pflanzjahr":null,"entnahmejahr":null,"marker-size":"small","marker-symbol":"park2","marker-color":"#A3DDAD"},"geometry":{"type":"Point","coordinates":[15.42287988105938,47.0866258791292],"bbox":[15.42287988105938,47.0866258791292,15.42287988105938,47.0866258791292]}}]}