{"type":"FeatureCollection","features":[{"type":"Feature","properties":{"nummer":28846,"baumbezeichnung_botanisch":"Pinus silvestris","baumbezeichnung_deutsch":"Rotföhre","baumtyp":"Nadel","bemerkung":null,"pflanzjahr":null,"entnahmejahr":null,"marker-size":"small","marker-symbol":"park","marker-color":"#3BB451"},"geometry":{"type":"Point","coordinates":[15.39854002698643,47.04755989501012],"bbox":[15.39854002698643,47.04755989501012,15.39854002698643,47.04755989501012]}},{"type":"Feature","properties":{"nummer":28847,"baumbezeichnung_botanisch":"Pinus silvestris","baumbezeichnung_deutsch":"Rotföhre","baumtyp":"Nadel","bemerkung":null,"pflanzjahr":null,"entnahmejahr":null,"marker-size":"small","marker-symbol":"park","marker-color":"#3BB451"},"geometry":{"type":"Point","coordinates":[15.39856566025687,47.04752773769731],"bbox":[15.39856566025687,47.04752773769731,15.39856566025687,47.04752773769731]}},{"type":"Feature","properties":{"nummer":28848,"baumbezeichnung_botanisch":"Pinus silvestris","baumbezeichnung_deutsch":"Rotföhre","baumtyp":"Nadel","bemerkung":null,"pflanzjahr":null,"entnahmejahr":null,"marker-size":"small","marker-symbol":"park","marker-color":"#3BB451"},"geometry":{"type":"Point","coordinates":[15.39849875058984,47.04753099748088],"bbox":[15.39849875058984,47.04753099748088,15.39849875058984,47.04753099748088]}},{"type":"Feature","properties":{"nummer":28842,"baumbezeichnung_botanisch":"Picea pungens","baumbezeichnung_deutsch":"Stechfichte","baumtyp":"Nadel","bemerkung":null,"pflanzjahr":null,"entnahmejahr":null,"marker-size":"small","marker-symbol":"park","marker-color":"#3BB451"},"geometry":{"type":"Point","coordinates":[15.39828648013157,47.04756353061339],"bbox":[15.39828648013157,47.04756353061339,15.39828648013157,47.04756353061339]}},{"type":"Feature","properties":{"nummer":28843,"baumbezeichnung_botanisch":"Picea pungens","baumbezeichnung_deutsch":"Stechfichte","baumtyp":"Nadel","bemerkung":null,"pflanzjahr":null,"entnahmejahr":null,"marker-size":"small","marker-symbol":"park","marker-color":"#3BB451"},"geometry":{"type":"Point","coordinates":[15.39832315437234,47.0475371756921],"bbox":[15.39832315437234,47.0475371756921,15.39832315437234,47.0475371756921]}},{"type":"Feature","properties":{"nummer":29013,"baumbezeichnung_botanisch":"Picea pungens","baumbezeichnung_deutsch":"Stechfichte","baumtyp":"Nadel","bemerkung":null,"pflanzjahr":null,"entnahmejahr":null,"marker-size":"small","marker-symbol":"park","marker-color":"#3BB451"},"geometry":{"type":"Point","coordinates":[15.39828721430638,47.04752164988133],"bbox":[15.39828721430638,47.04752164988133,15.39828721430638,47.04752164988133]}},{"type":"Feature","properties":{"nummer":28844,"baumbezeichnung_botanisch":"Picea pungens","baumbezeichnung_deutsch":"Stechfichte","baumtyp":"Nadel","bemerkung":null,"pflanzjahr":null,"entnahmejahr":null,"marker-size":"small","marker-symbol":"park","marker-color":"#3BB451"},"geometry":{"type":"Point","coordinates":[15.39824510374993,47.04754034408435],"bbox":[15.39824510374993,47.04754034408435,15.39824510374993,47.04754034408435]}},{"type":"Feature","properties":{"nummer":28305,"baumbezeichnung_botanisch":"Crataegus sp.","baumbezeichnung_deutsch":"Weißdorn","baumtyp":"Laub","bemerkung":null,"pflanzjahr":null,"entnahmejahr":null,"marker-size":"small","marker-symbol":"park2","marker-color":"#A3DDAD"},"geometry":{"type":"Point","coordinates":[15.39765177242758,47.04754119476739],"bbox":[15.39765177242758,47.04754119476739,15.39765177242758,47.04754119476739]}},{"type":"Feature","properties":{"nummer":18191,"baumbezeichnung_botanisch":"Populus sp.","baumbezeichnung_deutsch":"Pappel","baumtyp":"Laub","bemerkung":null,"pflanzjahr":null,"entnahmejahr":null,"marker-size":"small","marker-symbol":"park2","marker-color":"#A3DDAD"},"geometry":{"type":"Point","coordinates":[15.3987016761054,47.04745504349565],"bbox":[15.3987016761054,47.04745504349565,15.3987016761054,47.04745504349565]}},{"type":"Feature","properties":{"nummer":23865,"baumbezeichnung_botanisch":"Tilia platyphyllos","baumbezeichnung_deutsch":"Sommerlinde","baumtyp":"Laub","bemerkung":null,"pflanzjahr":null,"entnahmejahr":null,"marker-size":"small","marker-symbol":"park2","marker-color":"#A3DDAD"},"geometry":{"type":"Point","coordinates":[15.39862434420857,47.04748381728466],"bbox":[15.39862434420857,47.04748381728466,15.39862434420857,47.04748381728466]}},{"type":"Feature","properties":{"nummer":24444,"baumbezeichnung_botanisch":"Tilia platyphyllos","baumbezeichnung_deutsch":"Sommerlinde","baumtyp":"Laub","bemerkung":null,"pflanzjahr":null,"entnahmejahr":null,"marker-size":"small","marker-symbol":"park2","marker-color":"#A3DDAD"},"geometry":{"type":"Point","coordinates":[15.39856336933211,47.04745601152342],"bbox":[15.39856336933211,47.04745601152342,15.39856336933211,47.04745601152342]}},{"type":"Feature","properties":{"nummer":7779,"baumbezeichnung_botanisch":"Acer pseudoplatanus 'Purpurascens'","baumbezeichnung_deutsch":"Rotlaubiger Bergahorn","baumtyp":"Laub","bemerkung":null,"pflanzjahr":null,"entnahmejahr":null,"marker-size":"small","marker-symbol":"park2","marker-color":"#A3DDAD"},"geometry":{"type":"Point","coordinates":[15.39803899067313,47.04756724676248],"bbox":[15.39803899067313,47.04756724676248,15.39803899067313,47.04756724676248]}},{"type":"Feature","properties":{"nummer":28460,"baumbezeichnung_botanisch":"Acer platanoides","baumbezeichnung_deutsch":"Spitzahorn","baumtyp":"Laub","bemerkung":null,"pflanzjahr":null,"entnahmejahr":null,"marker-size":"small","marker-symbol":"park2","marker-color":"#A3DDAD"},"geometry":{"type":"Point","coordinates":[15.39796887114346,47.047535164141],"bbox":[15.39796887114346,47.047535164141,15.39796887114346,47.047535164141]}},{"type":"Feature","properties":{"nummer":39623,"baumbezeichnung_botanisch":"Cornus controversa 'Pagoda'","baumbezeichnung_deutsch":"Pagodenhartriegel","baumtyp":"Laub","bemerkung":null,"pflanzjahr":"2010","entnahmejahr":null,"marker-size":"small","marker-symbol":"park2","marker-color":"#A3DDAD"},"geometry":{"type":"Point","coordinates":[15.39744534954589,47.04745140624729],"bbox":[15.39744534954589,47.04745140624729,15.39744534954589,47.04745140624729]}}]}