{"type":"FeatureCollection","features":[{"type":"Feature","properties":{"nummer":29573,"baumbezeichnung_botanisch":"Castanea sativa","baumbezeichnung_deutsch":"Eßkastanie","baumtyp":"Laub","bemerkung":null,"pflanzjahr":"2005","entnahmejahr":null,"marker-size":"small","marker-symbol":"park2","marker-color":"#A3DDAD"},"geometry":{"type":"Point","coordinates":[15.40089208251931,47.07584565105864],"bbox":[15.40089208251931,47.07584565105864,15.40089208251931,47.07584565105864]}},{"type":"Feature","properties":{"nummer":29413,"baumbezeichnung_botanisch":"Betula pendula 'Dalecarlica'","baumbezeichnung_deutsch":"Schlitzblättrige Birke","baumtyp":"Laub","bemerkung":null,"pflanzjahr":"2005","entnahmejahr":null,"marker-size":"small","marker-symbol":"park2","marker-color":"#A3DDAD"},"geometry":{"type":"Point","coordinates":[15.4012802330441,47.07585414093611],"bbox":[15.4012802330441,47.07585414093611,15.4012802330441,47.07585414093611]}},{"type":"Feature","properties":{"nummer":29414,"baumbezeichnung_botanisch":"Betula pendula 'Dalecarlica'","baumbezeichnung_deutsch":"Schlitzblättrige Birke","baumtyp":"Laub","bemerkung":null,"pflanzjahr":"2005","entnahmejahr":null,"marker-size":"small","marker-symbol":"park2","marker-color":"#A3DDAD"},"geometry":{"type":"Point","coordinates":[15.40136998494248,47.07582962256146],"bbox":[15.40136998494248,47.07582962256146,15.40136998494248,47.07582962256146]}},{"type":"Feature","properties":{"nummer":111,"baumbezeichnung_botanisch":"Sophora japonica","baumbezeichnung_deutsch":"Schnurbaum","baumtyp":"Laub","bemerkung":null,"pflanzjahr":null,"entnahmejahr":null,"marker-size":"small","marker-symbol":"park2","marker-color":"#A3DDAD"},"geometry":{"type":"Point","coordinates":[15.40114346033198,47.07586324814602],"bbox":[15.40114346033198,47.07586324814602,15.40114346033198,47.07586324814602]}},{"type":"Feature","properties":{"nummer":10845,"baumbezeichnung_botanisch":"Prunus 'Frucht'","baumbezeichnung_deutsch":"Fruchtkirsche","baumtyp":"Laub","bemerkung":null,"pflanzjahr":"1997","entnahmejahr":null,"marker-size":"small","marker-symbol":"park2","marker-color":"#A3DDAD"},"geometry":{"type":"Point","coordinates":[15.40112436523755,47.07580622257765],"bbox":[15.40112436523755,47.07580622257765,15.40112436523755,47.07580622257765]}},{"type":"Feature","properties":{"nummer":8386,"baumbezeichnung_botanisch":"Malus 'Frucht'","baumbezeichnung_deutsch":"Fruchtapfelbaum","baumtyp":"Laub","bemerkung":null,"pflanzjahr":"1997","entnahmejahr":null,"marker-size":"small","marker-symbol":"park2","marker-color":"#A3DDAD"},"geometry":{"type":"Point","coordinates":[15.40104362460034,47.07582713444968],"bbox":[15.40104362460034,47.07582713444968,15.40104362460034,47.07582713444968]}},{"type":"Feature","properties":{"nummer":9179,"baumbezeichnung_botanisch":"Fraxinus excelsior","baumbezeichnung_deutsch":"Esche","baumtyp":"Laub","bemerkung":null,"pflanzjahr":"2011","entnahmejahr":null,"marker-size":"small","marker-symbol":"park2","marker-color":"#A3DDAD"},"geometry":{"type":"Point","coordinates":[15.40104238961225,47.0758977214368],"bbox":[15.40104238961225,47.0758977214368,15.40104238961225,47.0758977214368]}}]}