{"type":"FeatureCollection","features":[{"type":"Feature","properties":{"nummer":28195,"baumbezeichnung_botanisch":"Prunus cerasifera 'Nigra'","baumbezeichnung_deutsch":"Echte Blutpflaume","baumtyp":"Laub","bemerkung":null,"pflanzjahr":"2005","entnahmejahr":null,"marker-size":"small","marker-symbol":"park2","marker-color":"#A3DDAD"},"geometry":{"type":"Point","coordinates":[15.40096581214428,47.03751620583959],"bbox":[15.40096581214428,47.03751620583959,15.40096581214428,47.03751620583959]}},{"type":"Feature","properties":{"nummer":27957,"baumbezeichnung_botanisch":"Salix alba 'Tristis'","baumbezeichnung_deutsch":"Trauerweide","baumtyp":"Laub","bemerkung":null,"pflanzjahr":null,"entnahmejahr":null,"marker-size":"small","marker-symbol":"park2","marker-color":"#A3DDAD"},"geometry":{"type":"Point","coordinates":[15.4008200791301,47.03743599135875],"bbox":[15.4008200791301,47.03743599135875,15.4008200791301,47.03743599135875]}},{"type":"Feature","properties":{"nummer":1021,"baumbezeichnung_botanisch":"Malus 'Frucht'","baumbezeichnung_deutsch":"Fruchtapfelbaum","baumtyp":"Laub","bemerkung":null,"pflanzjahr":"2004","entnahmejahr":null,"marker-size":"small","marker-symbol":"park2","marker-color":"#A3DDAD"},"geometry":{"type":"Point","coordinates":[15.40019959629842,47.03789285024233],"bbox":[15.40019959629842,47.03789285024233,15.40019959629842,47.03789285024233]}},{"type":"Feature","properties":{"nummer":20057,"baumbezeichnung_botanisch":"Carpinus betulus","baumbezeichnung_deutsch":"Hain - oder Weißbuche","baumtyp":"Laub","bemerkung":null,"pflanzjahr":"2004","entnahmejahr":null,"marker-size":"small","marker-symbol":"park2","marker-color":"#A3DDAD"},"geometry":{"type":"Point","coordinates":[15.40107325318269,47.03780766166819],"bbox":[15.40107325318269,47.03780766166819,15.40107325318269,47.03780766166819]}},{"type":"Feature","properties":{"nummer":5776,"baumbezeichnung_botanisch":"Carpinus betulus","baumbezeichnung_deutsch":"Hain - oder Weißbuche","baumtyp":"Laub","bemerkung":null,"pflanzjahr":"2004","entnahmejahr":null,"marker-size":"small","marker-symbol":"park2","marker-color":"#A3DDAD"},"geometry":{"type":"Point","coordinates":[15.40119086767593,47.03776041524669],"bbox":[15.40119086767593,47.03776041524669,15.40119086767593,47.03776041524669]}},{"type":"Feature","properties":{"nummer":27958,"baumbezeichnung_botanisch":"Pinus wallichiana","baumbezeichnung_deutsch":"Tränen - Kiefer","baumtyp":"Nadel","bemerkung":null,"pflanzjahr":"2004","entnahmejahr":null,"marker-size":"small","marker-symbol":"park","marker-color":"#3BB451"},"geometry":{"type":"Point","coordinates":[15.40090724766794,47.03743100311322],"bbox":[15.40090724766794,47.03743100311322,15.40090724766794,47.03743100311322]}},{"type":"Feature","properties":{"nummer":9757,"baumbezeichnung_botanisch":"Malus 'Frucht'","baumbezeichnung_deutsch":"Fruchtapfelbaum","baumtyp":"Laub","bemerkung":null,"pflanzjahr":"2008","entnahmejahr":null,"marker-size":"small","marker-symbol":"park2","marker-color":"#A3DDAD"},"geometry":{"type":"Point","coordinates":[15.40018655218749,47.03760671405869],"bbox":[15.40018655218749,47.03760671405869,15.40018655218749,47.03760671405869]}},{"type":"Feature","properties":{"nummer":19320,"baumbezeichnung_botanisch":"Aesculus hippocastanum","baumbezeichnung_deutsch":"Gemeine Roßkastanie","baumtyp":"Laub","bemerkung":null,"pflanzjahr":null,"entnahmejahr":null,"marker-size":"small","marker-symbol":"park2","marker-color":"#A3DDAD"},"geometry":{"type":"Point","coordinates":[15.40042482979299,47.03739778454153],"bbox":[15.40042482979299,47.03739778454153,15.40042482979299,47.03739778454153]}},{"type":"Feature","properties":{"nummer":28123,"baumbezeichnung_botanisch":"Prunus 'Frucht'","baumbezeichnung_deutsch":"Fruchtkirsche","baumtyp":"Laub","bemerkung":null,"pflanzjahr":null,"entnahmejahr":null,"marker-size":"small","marker-symbol":"park2","marker-color":"#A3DDAD"},"geometry":{"type":"Point","coordinates":[15.40056896725794,47.03784380033595],"bbox":[15.40056896725794,47.03784380033595,15.40056896725794,47.03784380033595]}},{"type":"Feature","properties":{"nummer":28121,"baumbezeichnung_botanisch":"Prunus 'Frucht'","baumbezeichnung_deutsch":"Fruchtkirsche","baumtyp":"Laub","bemerkung":null,"pflanzjahr":null,"entnahmejahr":null,"marker-size":"small","marker-symbol":"park2","marker-color":"#A3DDAD"},"geometry":{"type":"Point","coordinates":[15.40046985953349,47.03785717768979],"bbox":[15.40046985953349,47.03785717768979,15.40046985953349,47.03785717768979]}},{"type":"Feature","properties":{"nummer":16689,"baumbezeichnung_botanisch":"Castanea sativa","baumbezeichnung_deutsch":"Eßkastanie","baumtyp":"Laub","bemerkung":null,"pflanzjahr":"1998","entnahmejahr":null,"marker-size":"small","marker-symbol":"park2","marker-color":"#A3DDAD"},"geometry":{"type":"Point","coordinates":[15.40019812676936,47.03769542168499],"bbox":[15.40019812676936,47.03769542168499,15.40019812676936,47.03769542168499]}},{"type":"Feature","properties":{"nummer":28119,"baumbezeichnung_botanisch":"Prunus sp.","baumbezeichnung_deutsch":"Kirsche","baumtyp":"Laub","bemerkung":null,"pflanzjahr":"1997","entnahmejahr":null,"marker-size":"small","marker-symbol":"park2","marker-color":"#A3DDAD"},"geometry":{"type":"Point","coordinates":[15.40038069732304,47.03786801054969],"bbox":[15.40038069732304,47.03786801054969,15.40038069732304,47.03786801054969]}},{"type":"Feature","properties":{"nummer":9544,"baumbezeichnung_botanisch":"Prunus 'Frucht'","baumbezeichnung_deutsch":"Fruchtkirsche","baumtyp":"Laub","bemerkung":null,"pflanzjahr":"1997","entnahmejahr":null,"marker-size":"small","marker-symbol":"park2","marker-color":"#A3DDAD"},"geometry":{"type":"Point","coordinates":[15.40043390805709,47.03744160483912],"bbox":[15.40043390805709,47.03744160483912,15.40043390805709,47.03744160483912]}},{"type":"Feature","properties":{"nummer":27700,"baumbezeichnung_botanisch":"Prunus 'Frucht'","baumbezeichnung_deutsch":"Fruchtkirsche","baumtyp":"Laub","bemerkung":null,"pflanzjahr":null,"entnahmejahr":null,"marker-size":"small","marker-symbol":"park2","marker-color":"#A3DDAD"},"geometry":{"type":"Point","coordinates":[15.40051536108723,47.03784821881904],"bbox":[15.40051536108723,47.03784821881904,15.40051536108723,47.03784821881904]}},{"type":"Feature","properties":{"nummer":4398,"baumbezeichnung_botanisch":"Malus 'Kulturapfel'","baumbezeichnung_deutsch":"Apfelbaum","baumtyp":"Laub","bemerkung":null,"pflanzjahr":null,"entnahmejahr":null,"marker-size":"small","marker-symbol":"park2","marker-color":"#A3DDAD"},"geometry":{"type":"Point","coordinates":[15.40030034234947,47.03747977174566],"bbox":[15.40030034234947,47.03747977174566,15.40030034234947,47.03747977174566]}},{"type":"Feature","properties":{"nummer":5291,"baumbezeichnung_botanisch":"Malus 'Kulturapfel'","baumbezeichnung_deutsch":"Apfelbaum","baumtyp":"Laub","bemerkung":null,"pflanzjahr":null,"entnahmejahr":null,"marker-size":"small","marker-symbol":"park2","marker-color":"#A3DDAD"},"geometry":{"type":"Point","coordinates":[15.4006021789721,47.03738913839152],"bbox":[15.4006021789721,47.03738913839152,15.4006021789721,47.03738913839152]}},{"type":"Feature","properties":{"nummer":27956,"baumbezeichnung_botanisch":"Quercus robur","baumbezeichnung_deutsch":"Stieleiche","baumtyp":"Laub","bemerkung":null,"pflanzjahr":null,"entnahmejahr":null,"marker-size":"small","marker-symbol":"park2","marker-color":"#A3DDAD"},"geometry":{"type":"Point","coordinates":[15.4011749302525,47.03759952560387],"bbox":[15.4011749302525,47.03759952560387,15.4011749302525,47.03759952560387]}},{"type":"Feature","properties":{"nummer":27955,"baumbezeichnung_botanisch":"Ulmus carpinifolia","baumbezeichnung_deutsch":"Feldulme","baumtyp":"Laub","bemerkung":null,"pflanzjahr":null,"entnahmejahr":null,"marker-size":"small","marker-symbol":"park2","marker-color":"#A3DDAD"},"geometry":{"type":"Point","coordinates":[15.40120292763188,47.03768428432187],"bbox":[15.40120292763188,47.03768428432187,15.40120292763188,47.03768428432187]}},{"type":"Feature","properties":{"nummer":1018,"baumbezeichnung_botanisch":"Robinia pseudoacacia","baumbezeichnung_deutsch":"Scheinakazie","baumtyp":"Laub","bemerkung":null,"pflanzjahr":null,"entnahmejahr":null,"marker-size":"small","marker-symbol":"park2","marker-color":"#A3DDAD"},"geometry":{"type":"Point","coordinates":[15.40117290943577,47.03777853776456],"bbox":[15.40117290943577,47.03777853776456,15.40117290943577,47.03777853776456]}},{"type":"Feature","properties":{"nummer":23157,"baumbezeichnung_botanisch":"Juglans cinerea","baumbezeichnung_deutsch":"Walnuß","baumtyp":"Laub","bemerkung":null,"pflanzjahr":null,"entnahmejahr":null,"marker-size":"small","marker-symbol":"park2","marker-color":"#A3DDAD"},"geometry":{"type":"Point","coordinates":[15.40099020505065,47.03781181835752],"bbox":[15.40099020505065,47.03781181835752,15.40099020505065,47.03781181835752]}},{"type":"Feature","properties":{"nummer":9368,"baumbezeichnung_botanisch":"Acer negundo","baumbezeichnung_deutsch":"Eschenahorn","baumtyp":"Laub","bemerkung":null,"pflanzjahr":null,"entnahmejahr":null,"marker-size":"small","marker-symbol":"park2","marker-color":"#A3DDAD"},"geometry":{"type":"Point","coordinates":[15.40083121509784,47.03780266794963],"bbox":[15.40083121509784,47.03780266794963,15.40083121509784,47.03780266794963]}},{"type":"Feature","properties":{"nummer":13072,"baumbezeichnung_botanisch":"Juglans regia","baumbezeichnung_deutsch":"Walnuß","baumtyp":"Laub","bemerkung":null,"pflanzjahr":null,"entnahmejahr":null,"marker-size":"small","marker-symbol":"park2","marker-color":"#A3DDAD"},"geometry":{"type":"Point","coordinates":[15.40075670725386,47.03784131866409],"bbox":[15.40075670725386,47.03784131866409,15.40075670725386,47.03784131866409]}},{"type":"Feature","properties":{"nummer":7049,"baumbezeichnung_botanisch":"Carpinus betulus","baumbezeichnung_deutsch":"Hain - oder Weißbuche","baumtyp":"Laub","bemerkung":null,"pflanzjahr":null,"entnahmejahr":null,"marker-size":"small","marker-symbol":"park2","marker-color":"#A3DDAD"},"geometry":{"type":"Point","coordinates":[15.40073578588867,47.03782329958461],"bbox":[15.40073578588867,47.03782329958461,15.40073578588867,47.03782329958461]}},{"type":"Feature","properties":{"nummer":26235,"baumbezeichnung_botanisch":"Robinia pseudoacacia","baumbezeichnung_deutsch":"Scheinakazie","baumtyp":"Laub","bemerkung":null,"pflanzjahr":null,"entnahmejahr":null,"marker-size":"small","marker-symbol":"park2","marker-color":"#A3DDAD"},"geometry":{"type":"Point","coordinates":[15.40070361189529,47.03782140683048],"bbox":[15.40070361189529,47.03782140683048,15.40070361189529,47.03782140683048]}},{"type":"Feature","properties":{"nummer":1020,"baumbezeichnung_botanisch":"Tilia platyphyllos","baumbezeichnung_deutsch":"Sommerlinde","baumtyp":"Laub","bemerkung":null,"pflanzjahr":null,"entnahmejahr":null,"marker-size":"small","marker-symbol":"park2","marker-color":"#A3DDAD"},"geometry":{"type":"Point","coordinates":[15.4007141972372,47.03773889804336],"bbox":[15.4007141972372,47.03773889804336,15.4007141972372,47.03773889804336]}},{"type":"Feature","properties":{"nummer":23158,"baumbezeichnung_botanisch":"Thuja occidentalis","baumbezeichnung_deutsch":"Abendländischer Lebensbaum","baumtyp":"Nadel","bemerkung":null,"pflanzjahr":null,"entnahmejahr":null,"marker-size":"small","marker-symbol":"park","marker-color":"#3BB451"},"geometry":{"type":"Point","coordinates":[15.40058015355818,47.03761666076272],"bbox":[15.40058015355818,47.03761666076272,15.40058015355818,47.03761666076272]}},{"type":"Feature","properties":{"nummer":21498,"baumbezeichnung_botanisch":"Thuja occidentalis","baumbezeichnung_deutsch":"Abendländischer Lebensbaum","baumtyp":"Nadel","bemerkung":null,"pflanzjahr":null,"entnahmejahr":null,"marker-size":"small","marker-symbol":"park","marker-color":"#3BB451"},"geometry":{"type":"Point","coordinates":[15.4006047611658,47.03761686181256],"bbox":[15.4006047611658,47.03761686181256,15.4006047611658,47.03761686181256]}},{"type":"Feature","properties":{"nummer":4399,"baumbezeichnung_botanisch":"Thuja occidentalis","baumbezeichnung_deutsch":"Abendländischer Lebensbaum","baumtyp":"Nadel","bemerkung":null,"pflanzjahr":null,"entnahmejahr":null,"marker-size":"small","marker-symbol":"park","marker-color":"#3BB451"},"geometry":{"type":"Point","coordinates":[15.40063102757001,47.03761595471415],"bbox":[15.40063102757001,47.03761595471415,15.40063102757001,47.03761595471415]}},{"type":"Feature","properties":{"nummer":27718,"baumbezeichnung_botanisch":"Malus 'Kulturapfel'","baumbezeichnung_deutsch":"Apfelbaum","baumtyp":"Laub","bemerkung":null,"pflanzjahr":null,"entnahmejahr":null,"marker-size":"small","marker-symbol":"park2","marker-color":"#A3DDAD"},"geometry":{"type":"Point","coordinates":[15.40029363203557,47.03783574942556],"bbox":[15.40029363203557,47.03783574942556,15.40029363203557,47.03783574942556]}},{"type":"Feature","properties":{"nummer":1022,"baumbezeichnung_botanisch":"Picea pungens","baumbezeichnung_deutsch":"Stechfichte","baumtyp":"Nadel","bemerkung":null,"pflanzjahr":null,"entnahmejahr":null,"marker-size":"small","marker-symbol":"park","marker-color":"#3BB451"},"geometry":{"type":"Point","coordinates":[15.40020643997686,47.03778298095647],"bbox":[15.40020643997686,47.03778298095647,15.40020643997686,47.03778298095647]}}]}