{"type":"FeatureCollection","features":[{"type":"Feature","properties":{"nummer":9085,"baumbezeichnung_botanisch":"Malus 'Kulturapfel'","baumbezeichnung_deutsch":"Apfelbaum","baumtyp":"Laub","bemerkung":null,"pflanzjahr":null,"entnahmejahr":null,"marker-size":"small","marker-symbol":"park2","marker-color":"#A3DDAD"},"geometry":{"type":"Point","coordinates":[15.46911069055599,47.05036329739852],"bbox":[15.46911069055599,47.05036329739852,15.46911069055599,47.05036329739852]}},{"type":"Feature","properties":{"nummer":14048,"baumbezeichnung_botanisch":"Prunus avium","baumbezeichnung_deutsch":"Vogelkirsche","baumtyp":"Laub","bemerkung":null,"pflanzjahr":null,"entnahmejahr":"2011","marker-size":"small","marker-symbol":"park2","marker-color":"#B3B3B3"},"geometry":{"type":"Point","coordinates":[15.46912507163878,47.0502516986116],"bbox":[15.46912507163878,47.0502516986116,15.46912507163878,47.0502516986116]}},{"type":"Feature","properties":{"nummer":12805,"baumbezeichnung_botanisch":"Acer platanoides 'Schwedleri'","baumbezeichnung_deutsch":"Hellroter Spitzahorn","baumtyp":"Laub","bemerkung":null,"pflanzjahr":null,"entnahmejahr":null,"marker-size":"small","marker-symbol":"park2","marker-color":"#A3DDAD"},"geometry":{"type":"Point","coordinates":[15.46949528599164,47.05021497380965],"bbox":[15.46949528599164,47.05021497380965,15.46949528599164,47.05021497380965]}},{"type":"Feature","properties":{"nummer":16185,"baumbezeichnung_botanisch":"Salix alba 'Tristis'","baumbezeichnung_deutsch":"Trauerweide","baumtyp":"Laub","bemerkung":null,"pflanzjahr":null,"entnahmejahr":null,"marker-size":"small","marker-symbol":"park2","marker-color":"#A3DDAD"},"geometry":{"type":"Point","coordinates":[15.46971517225618,47.04998978535073],"bbox":[15.46971517225618,47.04998978535073,15.46971517225618,47.04998978535073]}},{"type":"Feature","properties":{"nummer":23037,"baumbezeichnung_botanisch":"Sophora japonica","baumbezeichnung_deutsch":"Schnurbaum","baumtyp":"Laub","bemerkung":null,"pflanzjahr":null,"entnahmejahr":null,"marker-size":"small","marker-symbol":"park2","marker-color":"#A3DDAD"},"geometry":{"type":"Point","coordinates":[15.46962245668926,47.04997017966206],"bbox":[15.46962245668926,47.04997017966206,15.46962245668926,47.04997017966206]}},{"type":"Feature","properties":{"nummer":6807,"baumbezeichnung_botanisch":"Tilia cordata","baumbezeichnung_deutsch":"Winterlinde","baumtyp":"Laub","bemerkung":null,"pflanzjahr":null,"entnahmejahr":null,"marker-size":"small","marker-symbol":"park2","marker-color":"#A3DDAD"},"geometry":{"type":"Point","coordinates":[15.46952540909723,47.04990757682941],"bbox":[15.46952540909723,47.04990757682941,15.46952540909723,47.04990757682941]}},{"type":"Feature","properties":{"nummer":28907,"baumbezeichnung_botanisch":"Castanea sativa","baumbezeichnung_deutsch":"Eßkastanie","baumtyp":"Laub","bemerkung":null,"pflanzjahr":null,"entnahmejahr":null,"marker-size":"small","marker-symbol":"park2","marker-color":"#A3DDAD"},"geometry":{"type":"Point","coordinates":[15.46945660914057,47.05008105321097],"bbox":[15.46945660914057,47.05008105321097,15.46945660914057,47.05008105321097]}},{"type":"Feature","properties":{"nummer":28908,"baumbezeichnung_botanisch":"Prunus domestica","baumbezeichnung_deutsch":"Pflaume","baumtyp":"Laub","bemerkung":null,"pflanzjahr":null,"entnahmejahr":null,"marker-size":"small","marker-symbol":"park2","marker-color":"#A3DDAD"},"geometry":{"type":"Point","coordinates":[15.46938729612631,47.05017505019601],"bbox":[15.46938729612631,47.05017505019601,15.46938729612631,47.05017505019601]}},{"type":"Feature","properties":{"nummer":466,"baumbezeichnung_botanisch":"Juglans regia","baumbezeichnung_deutsch":"Walnuß","baumtyp":"Laub","bemerkung":null,"pflanzjahr":"2007","entnahmejahr":null,"marker-size":"small","marker-symbol":"park2","marker-color":"#A3DDAD"},"geometry":{"type":"Point","coordinates":[15.46947735471853,47.04976972635581],"bbox":[15.46947735471853,47.04976972635581,15.46947735471853,47.04976972635581]}},{"type":"Feature","properties":{"nummer":18190,"baumbezeichnung_botanisch":"Quercus rubra","baumbezeichnung_deutsch":"Roteiche","baumtyp":"Laub","bemerkung":null,"pflanzjahr":null,"entnahmejahr":null,"marker-size":"small","marker-symbol":"park2","marker-color":"#A3DDAD"},"geometry":{"type":"Point","coordinates":[15.4696713104147,47.05036925884468],"bbox":[15.4696713104147,47.05036925884468,15.4696713104147,47.05036925884468]}},{"type":"Feature","properties":{"nummer":22254,"baumbezeichnung_botanisch":"Quercus rubra","baumbezeichnung_deutsch":"Roteiche","baumtyp":"Laub","bemerkung":null,"pflanzjahr":null,"entnahmejahr":null,"marker-size":"small","marker-symbol":"park2","marker-color":"#A3DDAD"},"geometry":{"type":"Point","coordinates":[15.46968004591977,47.05024294263558],"bbox":[15.46968004591977,47.05024294263558,15.46968004591977,47.05024294263558]}},{"type":"Feature","properties":{"nummer":24489,"baumbezeichnung_botanisch":"Tilia cordata","baumbezeichnung_deutsch":"Winterlinde","baumtyp":"Laub","bemerkung":null,"pflanzjahr":null,"entnahmejahr":null,"marker-size":"small","marker-symbol":"park2","marker-color":"#A3DDAD"},"geometry":{"type":"Point","coordinates":[15.47011185402061,47.05018182926509],"bbox":[15.47011185402061,47.05018182926509,15.47011185402061,47.05018182926509]}},{"type":"Feature","properties":{"nummer":24116,"baumbezeichnung_botanisch":"Malus 'Kulturapfel'","baumbezeichnung_deutsch":"Apfelbaum","baumtyp":"Laub","bemerkung":null,"pflanzjahr":null,"entnahmejahr":null,"marker-size":"small","marker-symbol":"park2","marker-color":"#A3DDAD"},"geometry":{"type":"Point","coordinates":[15.46955234951132,47.05010713502209],"bbox":[15.46955234951132,47.05010713502209,15.46955234951132,47.05010713502209]}},{"type":"Feature","properties":{"nummer":465,"baumbezeichnung_botanisch":"Juglans regia","baumbezeichnung_deutsch":"Walnuß","baumtyp":"Laub","bemerkung":null,"pflanzjahr":null,"entnahmejahr":null,"marker-size":"small","marker-symbol":"park2","marker-color":"#A3DDAD"},"geometry":{"type":"Point","coordinates":[15.46967905761646,47.05004622541444],"bbox":[15.46967905761646,47.05004622541444,15.46967905761646,47.05004622541444]}},{"type":"Feature","properties":{"nummer":21964,"baumbezeichnung_botanisch":"Betula papyrifera","baumbezeichnung_deutsch":"Papierbirke","baumtyp":"Laub","bemerkung":null,"pflanzjahr":null,"entnahmejahr":null,"marker-size":"small","marker-symbol":"park2","marker-color":"#A3DDAD"},"geometry":{"type":"Point","coordinates":[15.46930339018081,47.04995401578006],"bbox":[15.46930339018081,47.04995401578006,15.46930339018081,47.04995401578006]}},{"type":"Feature","properties":{"nummer":22252,"baumbezeichnung_botanisch":"Malus 'Kulturapfel'","baumbezeichnung_deutsch":"Apfelbaum","baumtyp":"Laub","bemerkung":null,"pflanzjahr":null,"entnahmejahr":null,"marker-size":"small","marker-symbol":"park2","marker-color":"#A3DDAD"},"geometry":{"type":"Point","coordinates":[15.46961266072492,47.05010931038929],"bbox":[15.46961266072492,47.05010931038929,15.46961266072492,47.05010931038929]}},{"type":"Feature","properties":{"nummer":40882,"baumbezeichnung_botanisch":"Salix matsudana 'Tortuosa'","baumbezeichnung_deutsch":"Korkenzieherweide","baumtyp":"Laub","bemerkung":null,"pflanzjahr":null,"entnahmejahr":null,"marker-size":"small","marker-symbol":"park2","marker-color":"#A3DDAD"},"geometry":{"type":"Point","coordinates":[15.46913449802459,47.05003776532315],"bbox":[15.46913449802459,47.05003776532315,15.46913449802459,47.05003776532315]}}]}