{"type":"FeatureCollection","features":[{"type":"Feature","properties":{"nummer":18739,"baumbezeichnung_botanisch":"Aesculus x carnea","baumbezeichnung_deutsch":"Rotblühende Roßkastanie","baumtyp":"Laub","bemerkung":null,"pflanzjahr":null,"entnahmejahr":null,"marker-size":"small","marker-symbol":"park2","marker-color":"#A3DDAD"},"geometry":{"type":"Point","coordinates":[15.45482321169632,47.06947423418164],"bbox":[15.45482321169632,47.06947423418164,15.45482321169632,47.06947423418164]}},{"type":"Feature","properties":{"nummer":25185,"baumbezeichnung_botanisch":"Tilia cordata","baumbezeichnung_deutsch":"Winterlinde","baumtyp":"Laub","bemerkung":null,"pflanzjahr":null,"entnahmejahr":null,"marker-size":"small","marker-symbol":"park2","marker-color":"#A3DDAD"},"geometry":{"type":"Point","coordinates":[15.4548721985874,47.06968914408687],"bbox":[15.4548721985874,47.06968914408687,15.4548721985874,47.06968914408687]}},{"type":"Feature","properties":{"nummer":21963,"baumbezeichnung_botanisch":"Malus 'Kulturapfel'","baumbezeichnung_deutsch":"Apfelbaum","baumtyp":"Laub","bemerkung":null,"pflanzjahr":null,"entnahmejahr":null,"marker-size":"small","marker-symbol":"park2","marker-color":"#A3DDAD"},"geometry":{"type":"Point","coordinates":[15.45483030814102,47.06966715253836],"bbox":[15.45483030814102,47.06966715253836,15.45483030814102,47.06966715253836]}},{"type":"Feature","properties":{"nummer":10296,"baumbezeichnung_botanisch":"Malus 'Kulturapfel'","baumbezeichnung_deutsch":"Apfelbaum","baumtyp":"Laub","bemerkung":null,"pflanzjahr":null,"entnahmejahr":null,"marker-size":"small","marker-symbol":"park2","marker-color":"#A3DDAD"},"geometry":{"type":"Point","coordinates":[15.45478934187305,47.06964356786043],"bbox":[15.45478934187305,47.06964356786043,15.45478934187305,47.06964356786043]}},{"type":"Feature","properties":{"nummer":13430,"baumbezeichnung_botanisch":"Abies concolor","baumbezeichnung_deutsch":"Coloradotanne","baumtyp":"Nadel","bemerkung":null,"pflanzjahr":null,"entnahmejahr":null,"marker-size":"small","marker-symbol":"park","marker-color":"#3BB451"},"geometry":{"type":"Point","coordinates":[15.45473549166316,47.06967621845925],"bbox":[15.45473549166316,47.06967621845925,15.45473549166316,47.06967621845925]}},{"type":"Feature","properties":{"nummer":27418,"baumbezeichnung_botanisch":"Tilia cordata","baumbezeichnung_deutsch":"Winterlinde","baumtyp":"Laub","bemerkung":null,"pflanzjahr":null,"entnahmejahr":null,"marker-size":"small","marker-symbol":"park2","marker-color":"#A3DDAD"},"geometry":{"type":"Point","coordinates":[15.45469162408265,47.06953907447961],"bbox":[15.45469162408265,47.06953907447961,15.45469162408265,47.06953907447961]}},{"type":"Feature","properties":{"nummer":22188,"baumbezeichnung_botanisch":"Ulmus sp.","baumbezeichnung_deutsch":"Ulme","baumtyp":"Laub","bemerkung":null,"pflanzjahr":null,"entnahmejahr":null,"marker-size":"small","marker-symbol":"park2","marker-color":"#A3DDAD"},"geometry":{"type":"Point","coordinates":[15.45463251683054,47.06962163520571],"bbox":[15.45463251683054,47.06962163520571,15.45463251683054,47.06962163520571]}},{"type":"Feature","properties":{"nummer":11932,"baumbezeichnung_botanisch":"Sophora japonica","baumbezeichnung_deutsch":"Schnurbaum","baumtyp":"Laub","bemerkung":null,"pflanzjahr":null,"entnahmejahr":null,"marker-size":"small","marker-symbol":"park2","marker-color":"#A3DDAD"},"geometry":{"type":"Point","coordinates":[15.45233217259224,47.06828376638194],"bbox":[15.45233217259224,47.06828376638194,15.45233217259224,47.06828376638194]}},{"type":"Feature","properties":{"nummer":7977,"baumbezeichnung_botanisch":"Betula pendula","baumbezeichnung_deutsch":"Sandbirke, Weißbirke","baumtyp":"Laub","bemerkung":null,"pflanzjahr":null,"entnahmejahr":null,"marker-size":"small","marker-symbol":"park2","marker-color":"#A3DDAD"},"geometry":{"type":"Point","coordinates":[15.45239443813581,47.06826090014705],"bbox":[15.45239443813581,47.06826090014705,15.45239443813581,47.06826090014705]}},{"type":"Feature","properties":{"nummer":27423,"baumbezeichnung_botanisch":"Abies concolor","baumbezeichnung_deutsch":"Coloradotanne","baumtyp":"Nadel","bemerkung":null,"pflanzjahr":"2009","entnahmejahr":null,"marker-size":"small","marker-symbol":"park","marker-color":"#3BB451"},"geometry":{"type":"Point","coordinates":[15.45499403910313,47.06978370704442],"bbox":[15.45499403910313,47.06978370704442,15.45499403910313,47.06978370704442]}},{"type":"Feature","properties":{"nummer":27419,"baumbezeichnung_botanisch":"Catalpa bignonioides 'Aurea'","baumbezeichnung_deutsch":"Gelblaubiger Trompetenbaum","baumtyp":"Laub","bemerkung":null,"pflanzjahr":"1999","entnahmejahr":null,"marker-size":"small","marker-symbol":"park2","marker-color":"#A3DDAD"},"geometry":{"type":"Point","coordinates":[15.45494606485752,47.0694410378162],"bbox":[15.45494606485752,47.0694410378162,15.45494606485752,47.0694410378162]}}]}