{"type":"FeatureCollection","features":[{"type":"Feature","properties":{"nummer":11654,"baumbezeichnung_botanisch":"Prunus serrulata 'Kanzan'","baumbezeichnung_deutsch":"Japanische Blütenkirsche","baumtyp":"Laub","bemerkung":null,"pflanzjahr":null,"entnahmejahr":null,"marker-size":"small","marker-symbol":"park2","marker-color":"#A3DDAD"},"geometry":{"type":"Point","coordinates":[15.42760645758824,47.07367971799241],"bbox":[15.42760645758824,47.07367971799241,15.42760645758824,47.07367971799241]}},{"type":"Feature","properties":{"nummer":25917,"baumbezeichnung_botanisch":"Prunus serrulata 'Kanzan'","baumbezeichnung_deutsch":"Japanische Blütenkirsche","baumtyp":"Laub","bemerkung":null,"pflanzjahr":null,"entnahmejahr":null,"marker-size":"small","marker-symbol":"park2","marker-color":"#A3DDAD"},"geometry":{"type":"Point","coordinates":[15.42769005808492,47.07368038120814],"bbox":[15.42769005808492,47.07368038120814,15.42769005808492,47.07368038120814]}},{"type":"Feature","properties":{"nummer":14693,"baumbezeichnung_botanisch":"Fraxinus excelsior","baumbezeichnung_deutsch":"Esche","baumtyp":"Laub","bemerkung":null,"pflanzjahr":null,"entnahmejahr":null,"marker-size":"small","marker-symbol":"park2","marker-color":"#A3DDAD"},"geometry":{"type":"Point","coordinates":[15.42792792870528,47.07380147985633],"bbox":[15.42792792870528,47.07380147985633,15.42792792870528,47.07380147985633]}},{"type":"Feature","properties":{"nummer":6054,"baumbezeichnung_botanisch":"Liriodendron tulipifera","baumbezeichnung_deutsch":"Tulpenbaum","baumtyp":"Laub","bemerkung":null,"pflanzjahr":null,"entnahmejahr":null,"marker-size":"small","marker-symbol":"park2","marker-color":"#A3DDAD"},"geometry":{"type":"Point","coordinates":[15.42799677942405,47.07381444359124],"bbox":[15.42799677942405,47.07381444359124,15.42799677942405,47.07381444359124]}},{"type":"Feature","properties":{"nummer":4377,"baumbezeichnung_botanisch":"Acer pseudoplatanus","baumbezeichnung_deutsch":"Bergahorn","baumtyp":"Laub","bemerkung":null,"pflanzjahr":null,"entnahmejahr":null,"marker-size":"small","marker-symbol":"park2","marker-color":"#A3DDAD"},"geometry":{"type":"Point","coordinates":[15.42825501849408,47.07380655698758],"bbox":[15.42825501849408,47.07380655698758,15.42825501849408,47.07380655698758]}},{"type":"Feature","properties":{"nummer":14150,"baumbezeichnung_botanisch":"Ilex aquifolium","baumbezeichnung_deutsch":"Stechpalme","baumtyp":"Laub","bemerkung":null,"pflanzjahr":null,"entnahmejahr":null,"marker-size":"small","marker-symbol":"park2","marker-color":"#A3DDAD"},"geometry":{"type":"Point","coordinates":[15.42879197625448,47.07370867521405],"bbox":[15.42879197625448,47.07370867521405,15.42879197625448,47.07370867521405]}},{"type":"Feature","properties":{"nummer":26255,"baumbezeichnung_botanisch":"Ilex aquifolium","baumbezeichnung_deutsch":"Stechpalme","baumtyp":"Laub","bemerkung":null,"pflanzjahr":null,"entnahmejahr":null,"marker-size":"small","marker-symbol":"park2","marker-color":"#A3DDAD"},"geometry":{"type":"Point","coordinates":[15.42886282292347,47.07371109940505],"bbox":[15.42886282292347,47.07371109940505,15.42886282292347,47.07371109940505]}},{"type":"Feature","properties":{"nummer":306,"baumbezeichnung_botanisch":"Tilia cordata","baumbezeichnung_deutsch":"Winterlinde","baumtyp":"Laub","bemerkung":null,"pflanzjahr":null,"entnahmejahr":null,"marker-size":"small","marker-symbol":"park2","marker-color":"#A3DDAD"},"geometry":{"type":"Point","coordinates":[15.42862958682464,47.07379865983032],"bbox":[15.42862958682464,47.07379865983032,15.42862958682464,47.07379865983032]}},{"type":"Feature","properties":{"nummer":23836,"baumbezeichnung_botanisch":"Tilia platyphyllos","baumbezeichnung_deutsch":"Sommerlinde","baumtyp":"Laub","bemerkung":null,"pflanzjahr":null,"entnahmejahr":null,"marker-size":"small","marker-symbol":"park2","marker-color":"#A3DDAD"},"geometry":{"type":"Point","coordinates":[15.42848535663947,47.07378261551095],"bbox":[15.42848535663947,47.07378261551095,15.42848535663947,47.07378261551095]}},{"type":"Feature","properties":{"nummer":24457,"baumbezeichnung_botanisch":"Tilia x europaea","baumbezeichnung_deutsch":"Zwischenlinde","baumtyp":"Laub","bemerkung":null,"pflanzjahr":null,"entnahmejahr":null,"marker-size":"small","marker-symbol":"park2","marker-color":"#A3DDAD"},"geometry":{"type":"Point","coordinates":[15.42823518731649,47.07374337927331],"bbox":[15.42823518731649,47.07374337927331,15.42823518731649,47.07374337927331]}},{"type":"Feature","properties":{"nummer":24303,"baumbezeichnung_botanisch":"Tilia americana","baumbezeichnung_deutsch":"Amerikanische Linde","baumtyp":"Laub","bemerkung":null,"pflanzjahr":null,"entnahmejahr":null,"marker-size":"small","marker-symbol":"park2","marker-color":"#A3DDAD"},"geometry":{"type":"Point","coordinates":[15.42873554336601,47.07349960856506],"bbox":[15.42873554336601,47.07349960856506,15.42873554336601,47.07349960856506]}},{"type":"Feature","properties":{"nummer":14951,"baumbezeichnung_botanisch":"Fraxinus excelsior","baumbezeichnung_deutsch":"Esche","baumtyp":"Laub","bemerkung":null,"pflanzjahr":null,"entnahmejahr":null,"marker-size":"small","marker-symbol":"park2","marker-color":"#A3DDAD"},"geometry":{"type":"Point","coordinates":[15.42875222122386,47.07364130363061],"bbox":[15.42875222122386,47.07364130363061,15.42875222122386,47.07364130363061]}},{"type":"Feature","properties":{"nummer":307,"baumbezeichnung_botanisch":"Fraxinus excelsior","baumbezeichnung_deutsch":"Esche","baumtyp":"Laub","bemerkung":null,"pflanzjahr":null,"entnahmejahr":null,"marker-size":"small","marker-symbol":"park2","marker-color":"#A3DDAD"},"geometry":{"type":"Point","coordinates":[15.42884215120365,47.07364387903981],"bbox":[15.42884215120365,47.07364387903981,15.42884215120365,47.07364387903981]}},{"type":"Feature","properties":{"nummer":26416,"baumbezeichnung_botanisch":"Ilex aquifolium","baumbezeichnung_deutsch":"Stechpalme","baumtyp":"Laub","bemerkung":null,"pflanzjahr":null,"entnahmejahr":null,"marker-size":"small","marker-symbol":"park2","marker-color":"#A3DDAD"},"geometry":{"type":"Point","coordinates":[15.42890440899083,47.07367044993755],"bbox":[15.42890440899083,47.07367044993755,15.42890440899083,47.07367044993755]}},{"type":"Feature","properties":{"nummer":23978,"baumbezeichnung_botanisch":"Catalpa bignonioides","baumbezeichnung_deutsch":"Trompetenbaum","baumtyp":"Laub","bemerkung":null,"pflanzjahr":null,"entnahmejahr":null,"marker-size":"small","marker-symbol":"park2","marker-color":"#A3DDAD"},"geometry":{"type":"Point","coordinates":[15.42862869446604,47.07369061724118],"bbox":[15.42862869446604,47.07369061724118,15.42862869446604,47.07369061724118]}},{"type":"Feature","properties":{"nummer":13621,"baumbezeichnung_botanisch":"Picea abies","baumbezeichnung_deutsch":"Rotfichte","baumtyp":"Nadel","bemerkung":null,"pflanzjahr":null,"entnahmejahr":null,"marker-size":"small","marker-symbol":"park","marker-color":"#3BB451"},"geometry":{"type":"Point","coordinates":[15.42860279293884,47.07361031700602],"bbox":[15.42860279293884,47.07361031700602,15.42860279293884,47.07361031700602]}},{"type":"Feature","properties":{"nummer":26830,"baumbezeichnung_botanisch":"Picea abies","baumbezeichnung_deutsch":"Rotfichte","baumtyp":"Nadel","bemerkung":null,"pflanzjahr":null,"entnahmejahr":null,"marker-size":"small","marker-symbol":"park","marker-color":"#3BB451"},"geometry":{"type":"Point","coordinates":[15.42858725943744,47.07356176434372],"bbox":[15.42858725943744,47.07356176434372,15.42858725943744,47.07356176434372]}},{"type":"Feature","properties":{"nummer":26831,"baumbezeichnung_botanisch":"Picea abies","baumbezeichnung_deutsch":"Rotfichte","baumtyp":"Nadel","bemerkung":null,"pflanzjahr":null,"entnahmejahr":null,"marker-size":"small","marker-symbol":"park","marker-color":"#3BB451"},"geometry":{"type":"Point","coordinates":[15.4286427328871,47.07353813129679],"bbox":[15.4286427328871,47.07353813129679,15.4286427328871,47.07353813129679]}},{"type":"Feature","properties":{"nummer":26826,"baumbezeichnung_botanisch":"Pinus mugo","baumbezeichnung_deutsch":"Krummholzkiefer, Latsche","baumtyp":"Nadel","bemerkung":null,"pflanzjahr":null,"entnahmejahr":null,"marker-size":"small","marker-symbol":"park","marker-color":"#3BB451"},"geometry":{"type":"Point","coordinates":[15.42861382974587,47.07337964894219],"bbox":[15.42861382974587,47.07337964894219,15.42861382974587,47.07337964894219]}},{"type":"Feature","properties":{"nummer":26829,"baumbezeichnung_botanisch":"Picea abies","baumbezeichnung_deutsch":"Rotfichte","baumtyp":"Nadel","bemerkung":null,"pflanzjahr":null,"entnahmejahr":null,"marker-size":"small","marker-symbol":"park","marker-color":"#3BB451"},"geometry":{"type":"Point","coordinates":[15.42854709487028,47.07352845834279],"bbox":[15.42854709487028,47.07352845834279,15.42854709487028,47.07352845834279]}},{"type":"Feature","properties":{"nummer":26827,"baumbezeichnung_botanisch":"Picea abies","baumbezeichnung_deutsch":"Rotfichte","baumtyp":"Nadel","bemerkung":null,"pflanzjahr":null,"entnahmejahr":null,"marker-size":"small","marker-symbol":"park","marker-color":"#3BB451"},"geometry":{"type":"Point","coordinates":[15.4286279907743,47.07345801034754],"bbox":[15.4286279907743,47.07345801034754,15.4286279907743,47.07345801034754]}},{"type":"Feature","properties":{"nummer":26828,"baumbezeichnung_botanisch":"Taxus baccata","baumbezeichnung_deutsch":"Gemeine Eibe","baumtyp":"Nadel","bemerkung":null,"pflanzjahr":null,"entnahmejahr":null,"marker-size":"small","marker-symbol":"park","marker-color":"#3BB451"},"geometry":{"type":"Point","coordinates":[15.42855441381968,47.07348140366683],"bbox":[15.42855441381968,47.07348140366683,15.42855441381968,47.07348140366683]}},{"type":"Feature","properties":{"nummer":14044,"baumbezeichnung_botanisch":"Tilia x europaea","baumbezeichnung_deutsch":"Zwischenlinde","baumtyp":"Laub","bemerkung":null,"pflanzjahr":null,"entnahmejahr":null,"marker-size":"small","marker-symbol":"park2","marker-color":"#A3DDAD"},"geometry":{"type":"Point","coordinates":[15.42807734909735,47.07340498197119],"bbox":[15.42807734909735,47.07340498197119,15.42807734909735,47.07340498197119]}},{"type":"Feature","properties":{"nummer":23326,"baumbezeichnung_botanisch":"Acer platanoides","baumbezeichnung_deutsch":"Spitzahorn","baumtyp":"Laub","bemerkung":null,"pflanzjahr":null,"entnahmejahr":null,"marker-size":"small","marker-symbol":"park2","marker-color":"#A3DDAD"},"geometry":{"type":"Point","coordinates":[15.42786155072707,47.07358953912999],"bbox":[15.42786155072707,47.07358953912999,15.42786155072707,47.07358953912999]}},{"type":"Feature","properties":{"nummer":10835,"baumbezeichnung_botanisch":"Tilia x europaea","baumbezeichnung_deutsch":"Zwischenlinde","baumtyp":"Laub","bemerkung":null,"pflanzjahr":null,"entnahmejahr":null,"marker-size":"small","marker-symbol":"park2","marker-color":"#A3DDAD"},"geometry":{"type":"Point","coordinates":[15.42812760014984,47.07365684264648],"bbox":[15.42812760014984,47.07365684264648,15.42812760014984,47.07365684264648]}},{"type":"Feature","properties":{"nummer":10777,"baumbezeichnung_botanisch":"Populus nigra 'Italica'","baumbezeichnung_deutsch":"Säulenpappel","baumtyp":"Laub","bemerkung":null,"pflanzjahr":null,"entnahmejahr":null,"marker-size":"small","marker-symbol":"park2","marker-color":"#A3DDAD"},"geometry":{"type":"Point","coordinates":[15.42801446430867,47.07357585056536],"bbox":[15.42801446430867,47.07357585056536,15.42801446430867,47.07357585056536]}},{"type":"Feature","properties":{"nummer":308,"baumbezeichnung_botanisch":"Populus nigra 'Italica'","baumbezeichnung_deutsch":"Säulenpappel","baumtyp":"Laub","bemerkung":null,"pflanzjahr":null,"entnahmejahr":null,"marker-size":"small","marker-symbol":"park2","marker-color":"#A3DDAD"},"geometry":{"type":"Point","coordinates":[15.42799702768749,47.07347885316812],"bbox":[15.42799702768749,47.07347885316812,15.42799702768749,47.07347885316812]}},{"type":"Feature","properties":{"nummer":16299,"baumbezeichnung_botanisch":"Ginkgo biloba","baumbezeichnung_deutsch":"Ginkgobaum, Fächerblattbaum","baumtyp":"Laub","bemerkung":null,"pflanzjahr":null,"entnahmejahr":null,"marker-size":"small","marker-symbol":"park2","marker-color":"#A3DDAD"},"geometry":{"type":"Point","coordinates":[15.42769510141526,47.07359753236614],"bbox":[15.42769510141526,47.07359753236614,15.42769510141526,47.07359753236614]}},{"type":"Feature","properties":{"nummer":26040,"baumbezeichnung_botanisch":"Pinus nigra","baumbezeichnung_deutsch":"Schwarzkiefer","baumtyp":"Nadel","bemerkung":null,"pflanzjahr":null,"entnahmejahr":null,"marker-size":"small","marker-symbol":"park","marker-color":"#3BB451"},"geometry":{"type":"Point","coordinates":[15.4288631476264,47.0732100413116],"bbox":[15.4288631476264,47.0732100413116,15.4288631476264,47.0732100413116]}},{"type":"Feature","properties":{"nummer":395,"baumbezeichnung_botanisch":"Aesculus hippocastanum","baumbezeichnung_deutsch":"Gemeine Roßkastanie","baumtyp":"Laub","bemerkung":null,"pflanzjahr":null,"entnahmejahr":null,"marker-size":"small","marker-symbol":"park2","marker-color":"#A3DDAD"},"geometry":{"type":"Point","coordinates":[15.42827104836721,47.07307682339627],"bbox":[15.42827104836721,47.07307682339627,15.42827104836721,47.07307682339627]}},{"type":"Feature","properties":{"nummer":26825,"baumbezeichnung_botanisch":"Platanus x acerifolia","baumbezeichnung_deutsch":"Platane","baumtyp":"Laub","bemerkung":null,"pflanzjahr":null,"entnahmejahr":null,"marker-size":"small","marker-symbol":"park2","marker-color":"#A3DDAD"},"geometry":{"type":"Point","coordinates":[15.42795901231447,47.07301508418182],"bbox":[15.42795901231447,47.07301508418182,15.42795901231447,47.07301508418182]}},{"type":"Feature","properties":{"nummer":26823,"baumbezeichnung_botanisch":"Aesculus hippocastanum","baumbezeichnung_deutsch":"Gemeine Roßkastanie","baumtyp":"Laub","bemerkung":null,"pflanzjahr":null,"entnahmejahr":null,"marker-size":"small","marker-symbol":"park2","marker-color":"#A3DDAD"},"geometry":{"type":"Point","coordinates":[15.42823629014579,47.07296911857455],"bbox":[15.42823629014579,47.07296911857455,15.42823629014579,47.07296911857455]}},{"type":"Feature","properties":{"nummer":26815,"baumbezeichnung_botanisch":"Ulmus glabra","baumbezeichnung_deutsch":"Bergulme","baumtyp":"Laub","bemerkung":null,"pflanzjahr":null,"entnahmejahr":null,"marker-size":"small","marker-symbol":"park2","marker-color":"#A3DDAD"},"geometry":{"type":"Point","coordinates":[15.42789612286945,47.07323194907833],"bbox":[15.42789612286945,47.07323194907833,15.42789612286945,47.07323194907833]}},{"type":"Feature","properties":{"nummer":26814,"baumbezeichnung_botanisch":"Ulmus glabra","baumbezeichnung_deutsch":"Bergulme","baumtyp":"Laub","bemerkung":null,"pflanzjahr":null,"entnahmejahr":null,"marker-size":"small","marker-symbol":"park2","marker-color":"#A3DDAD"},"geometry":{"type":"Point","coordinates":[15.42808080673932,47.07322726191519],"bbox":[15.42808080673932,47.07322726191519,15.42808080673932,47.07322726191519]}},{"type":"Feature","properties":{"nummer":679,"baumbezeichnung_botanisch":"Ulmus glabra","baumbezeichnung_deutsch":"Bergulme","baumtyp":"Laub","bemerkung":null,"pflanzjahr":null,"entnahmejahr":null,"marker-size":"small","marker-symbol":"park2","marker-color":"#A3DDAD"},"geometry":{"type":"Point","coordinates":[15.42831758703493,47.07322620769324],"bbox":[15.42831758703493,47.07322620769324,15.42831758703493,47.07322620769324]}},{"type":"Feature","properties":{"nummer":9241,"baumbezeichnung_botanisch":"Celtis occidentalis","baumbezeichnung_deutsch":"Nesselbaum","baumtyp":"Laub","bemerkung":null,"pflanzjahr":null,"entnahmejahr":null,"marker-size":"small","marker-symbol":"park2","marker-color":"#A3DDAD"},"geometry":{"type":"Point","coordinates":[15.42882871285505,47.07298997257013],"bbox":[15.42882871285505,47.07298997257013,15.42882871285505,47.07298997257013]}},{"type":"Feature","properties":{"nummer":26810,"baumbezeichnung_botanisch":"Acer platanoides 'Crimson Sentry'","baumbezeichnung_deutsch":"Säulenblutahorn","baumtyp":"Laub","bemerkung":null,"pflanzjahr":"2008","entnahmejahr":null,"marker-size":"small","marker-symbol":"park2","marker-color":"#A3DDAD"},"geometry":{"type":"Point","coordinates":[15.42848012335368,47.07331040649697],"bbox":[15.42848012335368,47.07331040649697,15.42848012335368,47.07331040649697]}},{"type":"Feature","properties":{"nummer":279,"baumbezeichnung_botanisch":"Acer cappadocicum 'Rubrum'","baumbezeichnung_deutsch":"Rottriebiger Kolchischer Ahorn","baumtyp":"Laub","bemerkung":null,"pflanzjahr":"2009","entnahmejahr":null,"marker-size":"small","marker-symbol":"park2","marker-color":"#A3DDAD"},"geometry":{"type":"Point","coordinates":[15.42774269911196,47.07304283103418],"bbox":[15.42774269911196,47.07304283103418,15.42774269911196,47.07304283103418]}},{"type":"Feature","properties":{"nummer":14149,"baumbezeichnung_botanisch":"Prunus serrulata 'Kanzan'","baumbezeichnung_deutsch":"Japanische Blütenkirsche","baumtyp":"Laub","bemerkung":null,"pflanzjahr":null,"entnahmejahr":null,"marker-size":"small","marker-symbol":"park2","marker-color":"#A3DDAD"},"geometry":{"type":"Point","coordinates":[15.42779897521583,47.07368869580559],"bbox":[15.42779897521583,47.07368869580559,15.42779897521583,47.07368869580559]}},{"type":"Feature","properties":{"nummer":14237,"baumbezeichnung_botanisch":"Betula pendula","baumbezeichnung_deutsch":"Sandbirke, Weißbirke","baumtyp":"Laub","bemerkung":null,"pflanzjahr":null,"entnahmejahr":null,"marker-size":"small","marker-symbol":"park2","marker-color":"#A3DDAD"},"geometry":{"type":"Point","coordinates":[15.42810286466075,47.07334744121265],"bbox":[15.42810286466075,47.07334744121265,15.42810286466075,47.07334744121265]}},{"type":"Feature","properties":{"nummer":8456,"baumbezeichnung_botanisch":"Aesculus flava","baumbezeichnung_deutsch":"Gelbe Pavie","baumtyp":"Laub","bemerkung":null,"pflanzjahr":"2007","entnahmejahr":null,"marker-size":"small","marker-symbol":"park2","marker-color":"#A3DDAD"},"geometry":{"type":"Point","coordinates":[15.42851712039805,47.07303593300833],"bbox":[15.42851712039805,47.07303593300833,15.42851712039805,47.07303593300833]}},{"type":"Feature","properties":{"nummer":26822,"baumbezeichnung_botanisch":"Acer platanoides","baumbezeichnung_deutsch":"Spitzahorn","baumtyp":"Laub","bemerkung":null,"pflanzjahr":"2007","entnahmejahr":null,"marker-size":"small","marker-symbol":"park2","marker-color":"#A3DDAD"},"geometry":{"type":"Point","coordinates":[15.42837335468694,47.07298739026506],"bbox":[15.42837335468694,47.07298739026506,15.42837335468694,47.07298739026506]}},{"type":"Feature","properties":{"nummer":16298,"baumbezeichnung_botanisch":"Acer cappadocicum 'Rubrum'","baumbezeichnung_deutsch":"Rottriebiger Kolchischer Ahorn","baumtyp":"Laub","bemerkung":null,"pflanzjahr":"2005","entnahmejahr":null,"marker-size":"small","marker-symbol":"park2","marker-color":"#A3DDAD"},"geometry":{"type":"Point","coordinates":[15.42766633736083,47.07304408816422],"bbox":[15.42766633736083,47.07304408816422,15.42766633736083,47.07304408816422]}},{"type":"Feature","properties":{"nummer":4378,"baumbezeichnung_botanisch":"Betula nigra","baumbezeichnung_deutsch":"Schwarzbirke","baumtyp":"Laub","bemerkung":null,"pflanzjahr":"2005","entnahmejahr":null,"marker-size":"small","marker-symbol":"park2","marker-color":"#A3DDAD"},"geometry":{"type":"Point","coordinates":[15.42790652491393,47.0733496099949],"bbox":[15.42790652491393,47.0733496099949,15.42790652491393,47.0733496099949]}},{"type":"Feature","properties":{"nummer":27949,"baumbezeichnung_botanisch":"Fagus sylvatica 'Purpurea'","baumbezeichnung_deutsch":"Purpurbuche","baumtyp":"Laub","bemerkung":null,"pflanzjahr":"2005","entnahmejahr":null,"marker-size":"small","marker-symbol":"park2","marker-color":"#A3DDAD"},"geometry":{"type":"Point","coordinates":[15.42878580773816,47.07320670304368],"bbox":[15.42878580773816,47.07320670304368,15.42878580773816,47.07320670304368]}}]}