{"type":"FeatureCollection","features":[{"type":"Feature","properties":{"nummer":26796,"baumbezeichnung_botanisch":"Tilia platyphyllos","baumbezeichnung_deutsch":"Sommerlinde","baumtyp":"Laub","altersklassifizierung":"jung","bemerkung":null,"pflanzjahr":null,"entnahmejahr":null,"baumpatenschaft":null,"objectid":1388},"geometry":{"type":"Point","coordinates":[15.408714263859528,47.09243286560133],"bbox":[15.408714263859528,47.09243286560133,15.408714263859528,47.09243286560133]}},{"type":"Feature","properties":{"nummer":26914,"baumbezeichnung_botanisch":"Populus sp.","baumbezeichnung_deutsch":"Pappel","baumtyp":"Laub","altersklassifizierung":"alt","bemerkung":null,"pflanzjahr":null,"entnahmejahr":null,"baumpatenschaft":null,"objectid":2770},"geometry":{"type":"Point","coordinates":[15.408431391977132,47.088838648247346],"bbox":[15.408431391977132,47.088838648247346,15.408431391977132,47.088838648247346]}},{"type":"Feature","properties":{"nummer":14292,"baumbezeichnung_botanisch":"Prunus avium","baumbezeichnung_deutsch":"Vogelkirsche","baumtyp":"Laub","altersklassifizierung":"jung","bemerkung":null,"pflanzjahr":null,"entnahmejahr":null,"baumpatenschaft":null,"objectid":9829},"geometry":{"type":"Point","coordinates":[15.408473283453178,47.09248563443679],"bbox":[15.408473283453178,47.09248563443679,15.408473283453178,47.09248563443679]}},{"type":"Feature","properties":{"nummer":26909,"baumbezeichnung_botanisch":"Populus sp.","baumbezeichnung_deutsch":"Pappel","baumtyp":"Laub","altersklassifizierung":"alt","bemerkung":null,"pflanzjahr":null,"entnahmejahr":null,"baumpatenschaft":null,"objectid":23785},"geometry":{"type":"Point","coordinates":[15.40832645439894,47.08889867137051],"bbox":[15.40832645439894,47.08889867137051,15.40832645439894,47.08889867137051]}},{"type":"Feature","properties":{"nummer":26910,"baumbezeichnung_botanisch":"Prunus sp.","baumbezeichnung_deutsch":"Kirsche","baumtyp":"Laub","altersklassifizierung":"mittel","bemerkung":null,"pflanzjahr":null,"entnahmejahr":null,"baumpatenschaft":null,"objectid":23786},"geometry":{"type":"Point","coordinates":[15.408345808091296,47.088884707703926],"bbox":[15.408345808091296,47.088884707703926,15.408345808091296,47.088884707703926]}},{"type":"Feature","properties":{"nummer":14294,"baumbezeichnung_botanisch":"Sophora japonica","baumbezeichnung_deutsch":"Schnurbaum","baumtyp":"Laub","altersklassifizierung":"mittel","bemerkung":null,"pflanzjahr":null,"entnahmejahr":null,"baumpatenschaft":null,"objectid":19869},"geometry":{"type":"Point","coordinates":[15.408544469809485,47.09235482283627],"bbox":[15.408544469809485,47.09235482283627,15.408544469809485,47.09235482283627]}},{"type":"Feature","properties":{"nummer":30857,"baumbezeichnung_botanisch":"Robinia pseudoacacia","baumbezeichnung_deutsch":"Scheinakazie","baumtyp":"Laub","altersklassifizierung":"mittel","bemerkung":null,"pflanzjahr":null,"entnahmejahr":null,"baumpatenschaft":null,"objectid":28689},"geometry":{"type":"Point","coordinates":[15.41032970845017,47.089061437300494],"bbox":[15.41032970845017,47.089061437300494,15.41032970845017,47.089061437300494]}},{"type":"Feature","properties":{"nummer":18068,"baumbezeichnung_botanisch":"Robinia pseudoacacia","baumbezeichnung_deutsch":"Scheinakazie","baumtyp":"Laub","altersklassifizierung":"mittel","bemerkung":null,"pflanzjahr":null,"entnahmejahr":null,"baumpatenschaft":null,"objectid":28690},"geometry":{"type":"Point","coordinates":[15.408413946688006,47.09082256708293],"bbox":[15.408413946688006,47.09082256708293,15.408413946688006,47.09082256708293]}},{"type":"Feature","properties":{"nummer":26911,"baumbezeichnung_botanisch":"Populus sp.","baumbezeichnung_deutsch":"Pappel","baumtyp":"Laub","altersklassifizierung":"mittel","bemerkung":null,"pflanzjahr":null,"entnahmejahr":null,"baumpatenschaft":null,"objectid":25317},"geometry":{"type":"Point","coordinates":[15.408366677458453,47.08887348541698],"bbox":[15.408366677458453,47.08887348541698,15.408366677458453,47.08887348541698]}},{"type":"Feature","properties":{"nummer":26912,"baumbezeichnung_botanisch":"Populus sp.","baumbezeichnung_deutsch":"Pappel","baumtyp":"Laub","altersklassifizierung":"mittel","bemerkung":null,"pflanzjahr":null,"entnahmejahr":null,"baumpatenschaft":null,"objectid":25324},"geometry":{"type":"Point","coordinates":[15.408386364357147,47.088860354687775],"bbox":[15.408386364357147,47.088860354687775,15.408386364357147,47.088860354687775]}}]}