{"type":"FeatureCollection","features":[{"type":"Feature","properties":{"nummer":19272,"baumbezeichnung_botanisch":"Populus sp.","baumbezeichnung_deutsch":"Pappel","baumtyp":"Laub","bemerkung":null,"pflanzjahr":null,"entnahmejahr":null,"marker-size":"small","marker-symbol":"park2","marker-color":"#A3DDAD"},"geometry":{"type":"Point","coordinates":[15.40832645439894,47.08889867137051],"bbox":[15.40832645439894,47.08889867137051,15.40832645439894,47.08889867137051]}},{"type":"Feature","properties":{"nummer":19273,"baumbezeichnung_botanisch":"Prunus sp.","baumbezeichnung_deutsch":"Kirsche","baumtyp":"Laub","bemerkung":null,"pflanzjahr":null,"entnahmejahr":null,"marker-size":"small","marker-symbol":"park2","marker-color":"#A3DDAD"},"geometry":{"type":"Point","coordinates":[15.4083458080913,47.08888470770393],"bbox":[15.4083458080913,47.08888470770393,15.4083458080913,47.08888470770393]}},{"type":"Feature","properties":{"nummer":19397,"baumbezeichnung_botanisch":"Populus sp.","baumbezeichnung_deutsch":"Pappel","baumtyp":"Laub","bemerkung":null,"pflanzjahr":null,"entnahmejahr":null,"marker-size":"small","marker-symbol":"park2","marker-color":"#A3DDAD"},"geometry":{"type":"Point","coordinates":[15.40836667745845,47.08887348541698],"bbox":[15.40836667745845,47.08887348541698,15.40836667745845,47.08887348541698]}},{"type":"Feature","properties":{"nummer":19407,"baumbezeichnung_botanisch":"Populus sp.","baumbezeichnung_deutsch":"Pappel","baumtyp":"Laub","bemerkung":null,"pflanzjahr":null,"entnahmejahr":null,"marker-size":"small","marker-symbol":"park2","marker-color":"#A3DDAD"},"geometry":{"type":"Point","coordinates":[15.40838636435715,47.08886035468778],"bbox":[15.40838636435715,47.08886035468778,15.40838636435715,47.08886035468778]}},{"type":"Feature","properties":{"nummer":19858,"baumbezeichnung_botanisch":"Populus sp.","baumbezeichnung_deutsch":"Pappel","baumtyp":"Laub","bemerkung":null,"pflanzjahr":null,"entnahmejahr":null,"marker-size":"small","marker-symbol":"park2","marker-color":"#A3DDAD"},"geometry":{"type":"Point","coordinates":[15.40843139197713,47.08883864824735],"bbox":[15.40843139197713,47.08883864824735,15.40843139197713,47.08883864824735]}},{"type":"Feature","properties":{"nummer":23,"baumbezeichnung_botanisch":"Tilia platyphyllos","baumbezeichnung_deutsch":"Sommerlinde","baumtyp":"Laub","bemerkung":null,"pflanzjahr":null,"entnahmejahr":null,"marker-size":"small","marker-symbol":"park2","marker-color":"#A3DDAD"},"geometry":{"type":"Point","coordinates":[15.40871426385953,47.09243286560133],"bbox":[15.40871426385953,47.09243286560133,15.40871426385953,47.09243286560133]}},{"type":"Feature","properties":{"nummer":15194,"baumbezeichnung_botanisch":"Robinia pseudoacacia","baumbezeichnung_deutsch":"Scheinakazie","baumtyp":"Laub","bemerkung":null,"pflanzjahr":null,"entnahmejahr":null,"marker-size":"small","marker-symbol":"park2","marker-color":"#A3DDAD"},"geometry":{"type":"Point","coordinates":[15.40841394668801,47.09082256708293],"bbox":[15.40841394668801,47.09082256708293,15.40841394668801,47.09082256708293]}},{"type":"Feature","properties":{"nummer":28354,"baumbezeichnung_botanisch":"Prunus avium","baumbezeichnung_deutsch":"Vogelkirsche","baumtyp":"Laub","bemerkung":null,"pflanzjahr":null,"entnahmejahr":null,"marker-size":"small","marker-symbol":"park2","marker-color":"#A3DDAD"},"geometry":{"type":"Point","coordinates":[15.40847328345318,47.09248563443679],"bbox":[15.40847328345318,47.09248563443679,15.40847328345318,47.09248563443679]}},{"type":"Feature","properties":{"nummer":20562,"baumbezeichnung_botanisch":"Sophora japonica","baumbezeichnung_deutsch":"Schnurbaum","baumtyp":"Laub","bemerkung":null,"pflanzjahr":null,"entnahmejahr":null,"marker-size":"small","marker-symbol":"park2","marker-color":"#A3DDAD"},"geometry":{"type":"Point","coordinates":[15.40854446980949,47.09235482283627],"bbox":[15.40854446980949,47.09235482283627,15.40854446980949,47.09235482283627]}},{"type":"Feature","properties":{"nummer":55271,"baumbezeichnung_botanisch":"Robinia pseudoacacia","baumbezeichnung_deutsch":"Scheinakazie","baumtyp":"Laub","bemerkung":null,"pflanzjahr":null,"entnahmejahr":null,"marker-size":"small","marker-symbol":"park2","marker-color":"#A3DDAD"},"geometry":{"type":"Point","coordinates":[15.41032970845017,47.08906143730049],"bbox":[15.41032970845017,47.08906143730049,15.41032970845017,47.08906143730049]}}]}