{"type":"FeatureCollection","features":[{"type":"Feature","properties":{"nummer":17172,"baumbezeichnung_botanisch":"Crataegus holmesiana","baumbezeichnung_deutsch":"Weißdorn","baumtyp":"Laub","bemerkung":null,"pflanzjahr":null,"entnahmejahr":null,"marker-size":"small","marker-symbol":"park2","marker-color":"#A3DDAD"},"geometry":{"type":"Point","coordinates":[15.4340514375995,47.06448198930583],"bbox":[15.4340514375995,47.06448198930583,15.4340514375995,47.06448198930583]}},{"type":"Feature","properties":{"nummer":16945,"baumbezeichnung_botanisch":"Crataegus laevigata","baumbezeichnung_deutsch":"Zweigriffeliger Weißdorn","baumtyp":"Laub","bemerkung":null,"pflanzjahr":null,"entnahmejahr":null,"marker-size":"small","marker-symbol":"park2","marker-color":"#A3DDAD"},"geometry":{"type":"Point","coordinates":[15.43396795009881,47.06400752266678],"bbox":[15.43396795009881,47.06400752266678,15.43396795009881,47.06400752266678]}},{"type":"Feature","properties":{"nummer":9343,"baumbezeichnung_botanisch":"Crataegus holmesiana","baumbezeichnung_deutsch":"Weißdorn","baumtyp":"Laub","bemerkung":null,"pflanzjahr":null,"entnahmejahr":null,"marker-size":"small","marker-symbol":"park2","marker-color":"#A3DDAD"},"geometry":{"type":"Point","coordinates":[15.43394459309761,47.06387123464664],"bbox":[15.43394459309761,47.06387123464664,15.43394459309761,47.06387123464664]}},{"type":"Feature","properties":{"nummer":11390,"baumbezeichnung_botanisch":"Crataegus holmesiana","baumbezeichnung_deutsch":"Weißdorn","baumtyp":"Laub","bemerkung":null,"pflanzjahr":null,"entnahmejahr":null,"marker-size":"small","marker-symbol":"park2","marker-color":"#A3DDAD"},"geometry":{"type":"Point","coordinates":[15.4339324055802,47.06380556432453],"bbox":[15.4339324055802,47.06380556432453,15.4339324055802,47.06380556432453]}},{"type":"Feature","properties":{"nummer":28796,"baumbezeichnung_botanisch":"Crataegus holmesiana","baumbezeichnung_deutsch":"Weißdorn","baumtyp":"Laub","bemerkung":null,"pflanzjahr":null,"entnahmejahr":null,"marker-size":"small","marker-symbol":"park2","marker-color":"#A3DDAD"},"geometry":{"type":"Point","coordinates":[15.433923030712,47.06373703772687],"bbox":[15.433923030712,47.06373703772687,15.433923030712,47.06373703772687]}},{"type":"Feature","properties":{"nummer":1637,"baumbezeichnung_botanisch":"Crataegus holmesiana","baumbezeichnung_deutsch":"Weißdorn","baumtyp":"Laub","bemerkung":null,"pflanzjahr":null,"entnahmejahr":null,"marker-size":"small","marker-symbol":"park2","marker-color":"#A3DDAD"},"geometry":{"type":"Point","coordinates":[15.43389493136855,47.06360018071647],"bbox":[15.43389493136855,47.06360018071647,15.43389493136855,47.06360018071647]}},{"type":"Feature","properties":{"nummer":11389,"baumbezeichnung_botanisch":"Sophora japonica","baumbezeichnung_deutsch":"Schnurbaum","baumtyp":"Laub","bemerkung":null,"pflanzjahr":null,"entnahmejahr":null,"marker-size":"small","marker-symbol":"park2","marker-color":"#A3DDAD"},"geometry":{"type":"Point","coordinates":[15.43339219917646,47.06408782626949],"bbox":[15.43339219917646,47.06408782626949,15.43339219917646,47.06408782626949]}},{"type":"Feature","properties":{"nummer":13017,"baumbezeichnung_botanisch":"Ailanthus altissima","baumbezeichnung_deutsch":"Götterbaum","baumtyp":"Laub","bemerkung":null,"pflanzjahr":null,"entnahmejahr":null,"marker-size":"small","marker-symbol":"park2","marker-color":"#A3DDAD"},"geometry":{"type":"Point","coordinates":[15.43322203302701,47.06411551188766],"bbox":[15.43322203302701,47.06411551188766,15.43322203302701,47.06411551188766]}},{"type":"Feature","properties":{"nummer":16334,"baumbezeichnung_botanisch":"Tilia cordata","baumbezeichnung_deutsch":"Winterlinde","baumtyp":"Laub","bemerkung":null,"pflanzjahr":null,"entnahmejahr":null,"marker-size":"small","marker-symbol":"park2","marker-color":"#A3DDAD"},"geometry":{"type":"Point","coordinates":[15.43328081666953,47.06422280120593],"bbox":[15.43328081666953,47.06422280120593,15.43328081666953,47.06422280120593]}},{"type":"Feature","properties":{"nummer":18728,"baumbezeichnung_botanisch":"Populus nigra 'Italica'","baumbezeichnung_deutsch":"Säulenpappel","baumtyp":"Laub","bemerkung":null,"pflanzjahr":null,"entnahmejahr":null,"marker-size":"small","marker-symbol":"park2","marker-color":"#A3DDAD"},"geometry":{"type":"Point","coordinates":[15.43326184242993,47.06428303753283],"bbox":[15.43326184242993,47.06428303753283,15.43326184242993,47.06428303753283]}},{"type":"Feature","properties":{"nummer":19502,"baumbezeichnung_botanisch":"Populus nigra 'Italica'","baumbezeichnung_deutsch":"Säulenpappel","baumtyp":"Laub","bemerkung":null,"pflanzjahr":null,"entnahmejahr":null,"marker-size":"small","marker-symbol":"park2","marker-color":"#A3DDAD"},"geometry":{"type":"Point","coordinates":[15.43329999127715,47.06428626980859],"bbox":[15.43329999127715,47.06428626980859,15.43329999127715,47.06428626980859]}},{"type":"Feature","properties":{"nummer":21326,"baumbezeichnung_botanisch":"Populus nigra 'Italica'","baumbezeichnung_deutsch":"Säulenpappel","baumtyp":"Laub","bemerkung":null,"pflanzjahr":null,"entnahmejahr":null,"marker-size":"small","marker-symbol":"park2","marker-color":"#A3DDAD"},"geometry":{"type":"Point","coordinates":[15.43325986414864,47.06430196472238],"bbox":[15.43325986414864,47.06430196472238,15.43325986414864,47.06430196472238]}},{"type":"Feature","properties":{"nummer":18727,"baumbezeichnung_botanisch":"Catalpa bignonioides","baumbezeichnung_deutsch":"Trompetenbaum","baumtyp":"Laub","bemerkung":null,"pflanzjahr":null,"entnahmejahr":null,"marker-size":"small","marker-symbol":"park2","marker-color":"#A3DDAD"},"geometry":{"type":"Point","coordinates":[15.433374482733,47.06431769228705],"bbox":[15.433374482733,47.06431769228705,15.433374482733,47.06431769228705]}},{"type":"Feature","properties":{"nummer":9347,"baumbezeichnung_botanisch":"Prunus serrulata 'Kanzan'","baumbezeichnung_deutsch":"Japanische Blütenkirsche","baumtyp":"Laub","bemerkung":null,"pflanzjahr":"2007","entnahmejahr":null,"marker-size":"small","marker-symbol":"park2","marker-color":"#A3DDAD"},"geometry":{"type":"Point","coordinates":[15.43390810499469,47.06366981665985],"bbox":[15.43390810499469,47.06366981665985,15.43390810499469,47.06366981665985]}},{"type":"Feature","properties":{"nummer":24329,"baumbezeichnung_botanisch":"Prunus serrulata 'Kanzan'","baumbezeichnung_deutsch":"Japanische Blütenkirsche","baumtyp":"Laub","bemerkung":null,"pflanzjahr":"2004","entnahmejahr":null,"marker-size":"small","marker-symbol":"park2","marker-color":"#A3DDAD"},"geometry":{"type":"Point","coordinates":[15.43395301950954,47.06394136299266],"bbox":[15.43395301950954,47.06394136299266,15.43395301950954,47.06394136299266]}},{"type":"Feature","properties":{"nummer":9106,"baumbezeichnung_botanisch":"Corylus colurna","baumbezeichnung_deutsch":"Baumhasel","baumtyp":"Laub","bemerkung":null,"pflanzjahr":null,"entnahmejahr":null,"marker-size":"small","marker-symbol":"park2","marker-color":"#A3DDAD"},"geometry":{"type":"Point","coordinates":[15.43350515610662,47.06427674041232],"bbox":[15.43350515610662,47.06427674041232,15.43350515610662,47.06427674041232]}},{"type":"Feature","properties":{"nummer":12311,"baumbezeichnung_botanisch":"Quercus robur 'Fastigiata'","baumbezeichnung_deutsch":"Säulenstieleiche","baumtyp":"Laub","bemerkung":null,"pflanzjahr":"2005","entnahmejahr":null,"marker-size":"small","marker-symbol":"park2","marker-color":"#A3DDAD"},"geometry":{"type":"Point","coordinates":[15.43328961182638,47.06434580661815],"bbox":[15.43328961182638,47.06434580661815,15.43328961182638,47.06434580661815]}}]}