{"type":"FeatureCollection","features":[{"type":"Feature","properties":{"nummer":5969,"baumbezeichnung_botanisch":"Acer pseudoplatanus","baumbezeichnung_deutsch":"Bergahorn","baumtyp":"Laub","bemerkung":null,"pflanzjahr":null,"entnahmejahr":null,"marker-size":"small","marker-symbol":"park2","marker-color":"#A3DDAD"},"geometry":{"type":"Point","coordinates":[15.4638793830824,47.0677122412952],"bbox":[15.4638793830824,47.0677122412952,15.4638793830824,47.0677122412952]}},{"type":"Feature","properties":{"nummer":5963,"baumbezeichnung_botanisch":"Acer pseudoplatanus","baumbezeichnung_deutsch":"Bergahorn","baumtyp":"Laub","bemerkung":null,"pflanzjahr":null,"entnahmejahr":null,"marker-size":"small","marker-symbol":"park2","marker-color":"#A3DDAD"},"geometry":{"type":"Point","coordinates":[15.46389729192146,47.06769235282885],"bbox":[15.46389729192146,47.06769235282885,15.46389729192146,47.06769235282885]}},{"type":"Feature","properties":{"nummer":5972,"baumbezeichnung_botanisch":"Acer pseudoplatanus","baumbezeichnung_deutsch":"Bergahorn","baumtyp":"Laub","bemerkung":null,"pflanzjahr":null,"entnahmejahr":null,"marker-size":"small","marker-symbol":"park2","marker-color":"#A3DDAD"},"geometry":{"type":"Point","coordinates":[15.46391524428335,47.06766979584727],"bbox":[15.46391524428335,47.06766979584727,15.46391524428335,47.06766979584727]}},{"type":"Feature","properties":{"nummer":5971,"baumbezeichnung_botanisch":"Acer pseudoplatanus","baumbezeichnung_deutsch":"Bergahorn","baumtyp":"Laub","bemerkung":null,"pflanzjahr":null,"entnahmejahr":null,"marker-size":"small","marker-symbol":"park2","marker-color":"#A3DDAD"},"geometry":{"type":"Point","coordinates":[15.46393319662999,47.06764723886266],"bbox":[15.46393319662999,47.06764723886266,15.46393319662999,47.06764723886266]}},{"type":"Feature","properties":{"nummer":5970,"baumbezeichnung_botanisch":"Acer pseudoplatanus","baumbezeichnung_deutsch":"Bergahorn","baumtyp":"Laub","bemerkung":null,"pflanzjahr":null,"entnahmejahr":null,"marker-size":"small","marker-symbol":"park2","marker-color":"#A3DDAD"},"geometry":{"type":"Point","coordinates":[15.46395112718688,47.06762601658091],"bbox":[15.46395112718688,47.06762601658091,15.46395112718688,47.06762601658091]}},{"type":"Feature","properties":{"nummer":5981,"baumbezeichnung_botanisch":"Picea abies","baumbezeichnung_deutsch":"Rotfichte","baumtyp":"Nadel","bemerkung":null,"pflanzjahr":null,"entnahmejahr":null,"marker-size":"small","marker-symbol":"park","marker-color":"#3BB451"},"geometry":{"type":"Point","coordinates":[15.46390074795355,47.06760026850821],"bbox":[15.46390074795355,47.06760026850821,15.46390074795355,47.06760026850821]}},{"type":"Feature","properties":{"nummer":5984,"baumbezeichnung_botanisch":"Chamaecyparis sp.","baumbezeichnung_deutsch":"Scheinzypresse","baumtyp":"Nadel","bemerkung":null,"pflanzjahr":null,"entnahmejahr":null,"marker-size":"small","marker-symbol":"park","marker-color":"#3BB451"},"geometry":{"type":"Point","coordinates":[15.46378243191306,47.06754730457629],"bbox":[15.46378243191306,47.06754730457629,15.46378243191306,47.06754730457629]}},{"type":"Feature","properties":{"nummer":5989,"baumbezeichnung_botanisch":"Malus 'Frucht'","baumbezeichnung_deutsch":"Fruchtapfelbaum","baumtyp":"Laub","bemerkung":null,"pflanzjahr":null,"entnahmejahr":null,"marker-size":"small","marker-symbol":"park2","marker-color":"#A3DDAD"},"geometry":{"type":"Point","coordinates":[15.46362458864664,47.06757218423243],"bbox":[15.46362458864664,47.06757218423243,15.46362458864664,47.06757218423243]}},{"type":"Feature","properties":{"nummer":5998,"baumbezeichnung_botanisch":"Malus 'Frucht'","baumbezeichnung_deutsch":"Fruchtapfelbaum","baumtyp":"Laub","bemerkung":null,"pflanzjahr":null,"entnahmejahr":null,"marker-size":"small","marker-symbol":"park2","marker-color":"#A3DDAD"},"geometry":{"type":"Point","coordinates":[15.46358734021859,47.0676135495039],"bbox":[15.46358734021859,47.0676135495039,15.46358734021859,47.0676135495039]}},{"type":"Feature","properties":{"nummer":6001,"baumbezeichnung_botanisch":"Acer negundo","baumbezeichnung_deutsch":"Eschenahorn","baumtyp":"Laub","bemerkung":null,"pflanzjahr":null,"entnahmejahr":null,"marker-size":"small","marker-symbol":"park2","marker-color":"#A3DDAD"},"geometry":{"type":"Point","coordinates":[15.46340459074347,47.06760620755933],"bbox":[15.46340459074347,47.06760620755933,15.46340459074347,47.06760620755933]}},{"type":"Feature","properties":{"nummer":1087,"baumbezeichnung_botanisch":"Sorbus aria","baumbezeichnung_deutsch":"Mehlbeere","baumtyp":"Laub","bemerkung":null,"pflanzjahr":null,"entnahmejahr":null,"marker-size":"small","marker-symbol":"park2","marker-color":"#A3DDAD"},"geometry":{"type":"Point","coordinates":[15.46335981343859,47.06736192029037],"bbox":[15.46335981343859,47.06736192029037,15.46335981343859,47.06736192029037]}},{"type":"Feature","properties":{"nummer":27231,"baumbezeichnung_botanisch":"Tilia sp.","baumbezeichnung_deutsch":"Linde","baumtyp":"Laub","bemerkung":null,"pflanzjahr":null,"entnahmejahr":null,"marker-size":"small","marker-symbol":"park2","marker-color":"#A3DDAD"},"geometry":{"type":"Point","coordinates":[15.46435535695763,47.06786025135293],"bbox":[15.46435535695763,47.06786025135293,15.46435535695763,47.06786025135293]}}]}