{"type":"FeatureCollection","features":[{"type":"Feature","properties":{"nummer":16519,"baumbezeichnung_botanisch":"Acer pseudoplatanus","baumbezeichnung_deutsch":"Bergahorn","baumtyp":"Laub","bemerkung":null,"pflanzjahr":"2007","entnahmejahr":null,"marker-size":"small","marker-symbol":"park2","marker-color":"#A3DDAD"},"geometry":{"type":"Point","coordinates":[15.43709544474825,47.07642883580908],"bbox":[15.43709544474825,47.07642883580908,15.43709544474825,47.07642883580908]}},{"type":"Feature","properties":{"nummer":826,"baumbezeichnung_botanisch":"Betula pendula","baumbezeichnung_deutsch":"Sandbirke, Weißbirke","baumtyp":"Laub","bemerkung":null,"pflanzjahr":null,"entnahmejahr":null,"marker-size":"small","marker-symbol":"park2","marker-color":"#A3DDAD"},"geometry":{"type":"Point","coordinates":[15.43711382111154,47.07612478613216],"bbox":[15.43711382111154,47.07612478613216,15.43711382111154,47.07612478613216]}},{"type":"Feature","properties":{"nummer":15683,"baumbezeichnung_botanisch":"Ulmus glabra","baumbezeichnung_deutsch":"Bergulme","baumtyp":"Laub","bemerkung":null,"pflanzjahr":null,"entnahmejahr":null,"marker-size":"small","marker-symbol":"park2","marker-color":"#A3DDAD"},"geometry":{"type":"Point","coordinates":[15.43709727665464,47.07607610798261],"bbox":[15.43709727665464,47.07607610798261,15.43709727665464,47.07607610798261]}},{"type":"Feature","properties":{"nummer":8390,"baumbezeichnung_botanisch":"Acer ginnala","baumbezeichnung_deutsch":"Feuerahorn","baumtyp":"Laub","bemerkung":null,"pflanzjahr":null,"entnahmejahr":null,"marker-size":"small","marker-symbol":"park2","marker-color":"#A3DDAD"},"geometry":{"type":"Point","coordinates":[15.43685941329015,47.07639128469053],"bbox":[15.43685941329015,47.07639128469053,15.43685941329015,47.07639128469053]}},{"type":"Feature","properties":{"nummer":22219,"baumbezeichnung_botanisch":"Aesculus hippocastanum","baumbezeichnung_deutsch":"Gemeine Roßkastanie","baumtyp":"Laub","bemerkung":null,"pflanzjahr":null,"entnahmejahr":null,"marker-size":"small","marker-symbol":"park2","marker-color":"#A3DDAD"},"geometry":{"type":"Point","coordinates":[15.43691140965999,47.07645429966885],"bbox":[15.43691140965999,47.07645429966885,15.43691140965999,47.07645429966885]}},{"type":"Feature","properties":{"nummer":16620,"baumbezeichnung_botanisch":"Fagus sylvatica 'Pendula'","baumbezeichnung_deutsch":"Grünlaubige Hänge - Buche","baumtyp":"Laub","bemerkung":null,"pflanzjahr":null,"entnahmejahr":null,"marker-size":"small","marker-symbol":"park2","marker-color":"#A3DDAD"},"geometry":{"type":"Point","coordinates":[15.43692654282317,47.07655821276331],"bbox":[15.43692654282317,47.07655821276331,15.43692654282317,47.07655821276331]}},{"type":"Feature","properties":{"nummer":19948,"baumbezeichnung_botanisch":"Aesculus hippocastanum","baumbezeichnung_deutsch":"Gemeine Roßkastanie","baumtyp":"Laub","bemerkung":null,"pflanzjahr":null,"entnahmejahr":null,"marker-size":"small","marker-symbol":"park2","marker-color":"#A3DDAD"},"geometry":{"type":"Point","coordinates":[15.43689635944535,47.07663211503249],"bbox":[15.43689635944535,47.07663211503249,15.43689635944535,47.07663211503249]}},{"type":"Feature","properties":{"nummer":10844,"baumbezeichnung_botanisch":"Sorbus aucuparia","baumbezeichnung_deutsch":"Eberesche","baumtyp":"Laub","bemerkung":null,"pflanzjahr":null,"entnahmejahr":null,"marker-size":"small","marker-symbol":"park2","marker-color":"#A3DDAD"},"geometry":{"type":"Point","coordinates":[15.43710149069162,47.07662384000996],"bbox":[15.43710149069162,47.07662384000996,15.43710149069162,47.07662384000996]}},{"type":"Feature","properties":{"nummer":340,"baumbezeichnung_botanisch":"Fraxinus excelsior","baumbezeichnung_deutsch":"Esche","baumtyp":"Laub","bemerkung":null,"pflanzjahr":null,"entnahmejahr":null,"marker-size":"small","marker-symbol":"park2","marker-color":"#A3DDAD"},"geometry":{"type":"Point","coordinates":[15.43705079640474,47.07648340116814],"bbox":[15.43705079640474,47.07648340116814,15.43705079640474,47.07648340116814]}},{"type":"Feature","properties":{"nummer":19954,"baumbezeichnung_botanisch":"Pinus sylvestris","baumbezeichnung_deutsch":"Gemeine Kiefer","baumtyp":"Nadel","bemerkung":null,"pflanzjahr":null,"entnahmejahr":null,"marker-size":"small","marker-symbol":"park","marker-color":"#3BB451"},"geometry":{"type":"Point","coordinates":[15.43639726250057,47.07576538012543],"bbox":[15.43639726250057,47.07576538012543,15.43639726250057,47.07576538012543]}},{"type":"Feature","properties":{"nummer":508,"baumbezeichnung_botanisch":"Pinus sylvestris","baumbezeichnung_deutsch":"Gemeine Kiefer","baumtyp":"Nadel","bemerkung":null,"pflanzjahr":null,"entnahmejahr":null,"marker-size":"small","marker-symbol":"park","marker-color":"#3BB451"},"geometry":{"type":"Point","coordinates":[15.43637091813091,47.07595496942437],"bbox":[15.43637091813091,47.07595496942437,15.43637091813091,47.07595496942437]}},{"type":"Feature","properties":{"nummer":24490,"baumbezeichnung_botanisch":"Pinus sylvestris","baumbezeichnung_deutsch":"Gemeine Kiefer","baumtyp":"Nadel","bemerkung":null,"pflanzjahr":null,"entnahmejahr":null,"marker-size":"small","marker-symbol":"park","marker-color":"#3BB451"},"geometry":{"type":"Point","coordinates":[15.43638003180484,47.07598667404241],"bbox":[15.43638003180484,47.07598667404241,15.43638003180484,47.07598667404241]}},{"type":"Feature","properties":{"nummer":13188,"baumbezeichnung_botanisch":"Pinus sylvestris","baumbezeichnung_deutsch":"Gemeine Kiefer","baumtyp":"Nadel","bemerkung":null,"pflanzjahr":null,"entnahmejahr":null,"marker-size":"small","marker-symbol":"park","marker-color":"#3BB451"},"geometry":{"type":"Point","coordinates":[15.43635639402754,47.07601548397555],"bbox":[15.43635639402754,47.07601548397555,15.43635639402754,47.07601548397555]}},{"type":"Feature","properties":{"nummer":15983,"baumbezeichnung_botanisch":"Pinus sylvestris","baumbezeichnung_deutsch":"Gemeine Kiefer","baumtyp":"Nadel","bemerkung":null,"pflanzjahr":null,"entnahmejahr":null,"marker-size":"small","marker-symbol":"park","marker-color":"#3BB451"},"geometry":{"type":"Point","coordinates":[15.43632309048977,47.0760455375357],"bbox":[15.43632309048977,47.0760455375357,15.43632309048977,47.0760455375357]}},{"type":"Feature","properties":{"nummer":1048,"baumbezeichnung_botanisch":"Acer campestre","baumbezeichnung_deutsch":"Feldahorn","baumtyp":"Laub","bemerkung":null,"pflanzjahr":null,"entnahmejahr":null,"marker-size":"small","marker-symbol":"park2","marker-color":"#A3DDAD"},"geometry":{"type":"Point","coordinates":[15.43629078241273,47.07613095555506],"bbox":[15.43629078241273,47.07613095555506,15.43629078241273,47.07613095555506]}},{"type":"Feature","properties":{"nummer":8349,"baumbezeichnung_botanisch":"Ulmus sp.","baumbezeichnung_deutsch":"Ulme","baumtyp":"Laub","bemerkung":null,"pflanzjahr":null,"entnahmejahr":null,"marker-size":"small","marker-symbol":"park2","marker-color":"#A3DDAD"},"geometry":{"type":"Point","coordinates":[15.43628211216591,47.07618756275298],"bbox":[15.43628211216591,47.07618756275298,15.43628211216591,47.07618756275298]}},{"type":"Feature","properties":{"nummer":657,"baumbezeichnung_botanisch":"Ulmus sp.","baumbezeichnung_deutsch":"Ulme","baumtyp":"Laub","bemerkung":null,"pflanzjahr":null,"entnahmejahr":null,"marker-size":"small","marker-symbol":"park2","marker-color":"#A3DDAD"},"geometry":{"type":"Point","coordinates":[15.43628086960618,47.07626136304981],"bbox":[15.43628086960618,47.07626136304981,15.43628086960618,47.07626136304981]}},{"type":"Feature","properties":{"nummer":23329,"baumbezeichnung_botanisch":"Ulmus sp.","baumbezeichnung_deutsch":"Ulme","baumtyp":"Laub","bemerkung":null,"pflanzjahr":null,"entnahmejahr":null,"marker-size":"small","marker-symbol":"park2","marker-color":"#A3DDAD"},"geometry":{"type":"Point","coordinates":[15.43629774382865,47.07629049219353],"bbox":[15.43629774382865,47.07629049219353,15.43629774382865,47.07629049219353]}},{"type":"Feature","properties":{"nummer":48870,"baumbezeichnung_botanisch":"Acer pseudoplatanus","baumbezeichnung_deutsch":"Bergahorn","baumtyp":"Laub","bemerkung":null,"pflanzjahr":null,"entnahmejahr":null,"marker-size":"small","marker-symbol":"park2","marker-color":"#A3DDAD"},"geometry":{"type":"Point","coordinates":[15.43647911859391,47.07655610641564],"bbox":[15.43647911859391,47.07655610641564,15.43647911859391,47.07655610641564]}},{"type":"Feature","properties":{"nummer":48871,"baumbezeichnung_botanisch":"Acer platanoides","baumbezeichnung_deutsch":"Spitzahorn","baumtyp":"Laub","bemerkung":null,"pflanzjahr":null,"entnahmejahr":"2012","marker-size":"small","marker-symbol":"park2","marker-color":"#B3B3B3"},"geometry":{"type":"Point","coordinates":[15.43647400981583,47.07656987013603],"bbox":[15.43647400981583,47.07656987013603,15.43647400981583,47.07656987013603]}},{"type":"Feature","properties":{"nummer":48872,"baumbezeichnung_botanisch":"Robinia pseudoacacia","baumbezeichnung_deutsch":"Scheinakazie","baumtyp":"Laub","bemerkung":null,"pflanzjahr":null,"entnahmejahr":"2012","marker-size":"small","marker-symbol":"park2","marker-color":"#B3B3B3"},"geometry":{"type":"Point","coordinates":[15.43651568693879,47.07657757531197],"bbox":[15.43651568693879,47.07657757531197,15.43651568693879,47.07657757531197]}},{"type":"Feature","properties":{"nummer":46960,"baumbezeichnung_botanisch":"Ostrya carpinifolia","baumbezeichnung_deutsch":"Hopfenbuche","baumtyp":"Laub","bemerkung":null,"pflanzjahr":null,"entnahmejahr":null,"marker-size":"small","marker-symbol":"park2","marker-color":"#A3DDAD"},"geometry":{"type":"Point","coordinates":[15.43715090556476,47.07655636002986],"bbox":[15.43715090556476,47.07655636002986,15.43715090556476,47.07655636002986]}},{"type":"Feature","properties":{"nummer":48866,"baumbezeichnung_botanisch":"Robinia pseudoacacia","baumbezeichnung_deutsch":"Scheinakazie","baumtyp":"Laub","bemerkung":null,"pflanzjahr":null,"entnahmejahr":null,"marker-size":"small","marker-symbol":"park2","marker-color":"#A3DDAD"},"geometry":{"type":"Point","coordinates":[15.43634346297075,47.07646079464152],"bbox":[15.43634346297075,47.07646079464152,15.43634346297075,47.07646079464152]}},{"type":"Feature","properties":{"nummer":48867,"baumbezeichnung_botanisch":"Acer platanoides","baumbezeichnung_deutsch":"Spitzahorn","baumtyp":"Laub","bemerkung":null,"pflanzjahr":null,"entnahmejahr":null,"marker-size":"small","marker-symbol":"park2","marker-color":"#A3DDAD"},"geometry":{"type":"Point","coordinates":[15.43632100053764,47.07655343571616],"bbox":[15.43632100053764,47.07655343571616,15.43632100053764,47.07655343571616]}},{"type":"Feature","properties":{"nummer":48868,"baumbezeichnung_botanisch":"Acer platanoides","baumbezeichnung_deutsch":"Spitzahorn","baumtyp":"Laub","bemerkung":null,"pflanzjahr":null,"entnahmejahr":null,"marker-size":"small","marker-symbol":"park2","marker-color":"#A3DDAD"},"geometry":{"type":"Point","coordinates":[15.43640061615531,47.07658381069571],"bbox":[15.43640061615531,47.07658381069571,15.43640061615531,47.07658381069571]}},{"type":"Feature","properties":{"nummer":48869,"baumbezeichnung_botanisch":"Acer campestre","baumbezeichnung_deutsch":"Feldahorn","baumtyp":"Laub","bemerkung":null,"pflanzjahr":null,"entnahmejahr":null,"marker-size":"small","marker-symbol":"park2","marker-color":"#A3DDAD"},"geometry":{"type":"Point","coordinates":[15.43640309905105,47.07653980106885],"bbox":[15.43640309905105,47.07653980106885,15.43640309905105,47.07653980106885]}}]}