{"type":"FeatureCollection","features":[{"type":"Feature","properties":{"nummer":28107,"baumbezeichnung_botanisch":"Carpinus betulus 'Pendula'","baumbezeichnung_deutsch":"Hängehainbuche","baumtyp":"Laub","bemerkung":null,"pflanzjahr":"2004","entnahmejahr":null,"marker-size":"small","marker-symbol":"park2","marker-color":"#A3DDAD"},"geometry":{"type":"Point","coordinates":[15.43712660285016,47.07418657330029],"bbox":[15.43712660285016,47.07418657330029,15.43712660285016,47.07418657330029]}},{"type":"Feature","properties":{"nummer":762,"baumbezeichnung_botanisch":"Aesculus x carnea","baumbezeichnung_deutsch":"Rotblühende Roßkastanie","baumtyp":"Laub","bemerkung":null,"pflanzjahr":null,"entnahmejahr":null,"marker-size":"small","marker-symbol":"park2","marker-color":"#A3DDAD"},"geometry":{"type":"Point","coordinates":[15.4369437251186,47.07424685458683],"bbox":[15.4369437251186,47.07424685458683,15.4369437251186,47.07424685458683]}},{"type":"Feature","properties":{"nummer":29416,"baumbezeichnung_botanisch":"Fraxinus excelsior","baumbezeichnung_deutsch":"Esche","baumtyp":"Laub","bemerkung":null,"pflanzjahr":null,"entnahmejahr":"2012","marker-size":"small","marker-symbol":"park2","marker-color":"#B3B3B3"},"geometry":{"type":"Point","coordinates":[15.43712165620444,47.07436614566096],"bbox":[15.43712165620444,47.07436614566096,15.43712165620444,47.07436614566096]}},{"type":"Feature","properties":{"nummer":22248,"baumbezeichnung_botanisch":"Cedrus atlantica 'Glauca'","baumbezeichnung_deutsch":"Blaue Atlaszeder","baumtyp":"Nadel","bemerkung":null,"pflanzjahr":null,"entnahmejahr":null,"marker-size":"small","marker-symbol":"park","marker-color":"#3BB451"},"geometry":{"type":"Point","coordinates":[15.43711567302346,47.07449039189642],"bbox":[15.43711567302346,47.07449039189642,15.43711567302346,47.07449039189642]}},{"type":"Feature","properties":{"nummer":18189,"baumbezeichnung_botanisch":"Taxus baccata","baumbezeichnung_deutsch":"Gemeine Eibe","baumtyp":"Nadel","bemerkung":null,"pflanzjahr":null,"entnahmejahr":null,"marker-size":"small","marker-symbol":"park","marker-color":"#3BB451"},"geometry":{"type":"Point","coordinates":[15.43712903286676,47.07455639837732],"bbox":[15.43712903286676,47.07455639837732,15.43712903286676,47.07455639837732]}},{"type":"Feature","properties":{"nummer":14046,"baumbezeichnung_botanisch":"Taxus baccata","baumbezeichnung_deutsch":"Gemeine Eibe","baumtyp":"Nadel","bemerkung":null,"pflanzjahr":null,"entnahmejahr":null,"marker-size":"small","marker-symbol":"park","marker-color":"#3BB451"},"geometry":{"type":"Point","coordinates":[15.43705774732768,47.07463656783978],"bbox":[15.43705774732768,47.07463656783978,15.43705774732768,47.07463656783978]}},{"type":"Feature","properties":{"nummer":9187,"baumbezeichnung_botanisch":"Acer campestre","baumbezeichnung_deutsch":"Feldahorn","baumtyp":"Laub","bemerkung":null,"pflanzjahr":null,"entnahmejahr":null,"marker-size":"small","marker-symbol":"park2","marker-color":"#A3DDAD"},"geometry":{"type":"Point","coordinates":[15.43703502002804,47.07468879927601],"bbox":[15.43703502002804,47.07468879927601,15.43703502002804,47.07468879927601]}},{"type":"Feature","properties":{"nummer":14321,"baumbezeichnung_botanisch":"Acer carpinifolium","baumbezeichnung_deutsch":"Hainbuchen - Ahorn","baumtyp":"Laub","bemerkung":null,"pflanzjahr":null,"entnahmejahr":null,"marker-size":"small","marker-symbol":"park2","marker-color":"#A3DDAD"},"geometry":{"type":"Point","coordinates":[15.43704904982836,47.07475262431854],"bbox":[15.43704904982836,47.07475262431854,15.43704904982836,47.07475262431854]}},{"type":"Feature","properties":{"nummer":49188,"baumbezeichnung_botanisch":"Acer campestre","baumbezeichnung_deutsch":"Feldahorn","baumtyp":"Laub","bemerkung":null,"pflanzjahr":null,"entnahmejahr":null,"marker-size":"small","marker-symbol":"park2","marker-color":"#A3DDAD"},"geometry":{"type":"Point","coordinates":[15.43673704871451,47.07423208346617],"bbox":[15.43673704871451,47.07423208346617,15.43673704871451,47.07423208346617]}},{"type":"Feature","properties":{"nummer":49187,"baumbezeichnung_botanisch":"Acer campestre","baumbezeichnung_deutsch":"Feldahorn","baumtyp":"Laub","bemerkung":null,"pflanzjahr":null,"entnahmejahr":null,"marker-size":"small","marker-symbol":"park2","marker-color":"#A3DDAD"},"geometry":{"type":"Point","coordinates":[15.4365483137852,47.07459996987088],"bbox":[15.4365483137852,47.07459996987088,15.4365483137852,47.07459996987088]}},{"type":"Feature","properties":{"nummer":9732,"baumbezeichnung_botanisch":"Carpinus betulus","baumbezeichnung_deutsch":"Hain - oder Weißbuche","baumtyp":"Laub","bemerkung":null,"pflanzjahr":null,"entnahmejahr":null,"marker-size":"small","marker-symbol":"park2","marker-color":"#A3DDAD"},"geometry":{"type":"Point","coordinates":[15.43715912629499,47.07433471054172],"bbox":[15.43715912629499,47.07433471054172,15.43715912629499,47.07433471054172]}},{"type":"Feature","properties":{"nummer":47267,"baumbezeichnung_botanisch":"Fraxinus excelsior","baumbezeichnung_deutsch":"Esche","baumtyp":"Laub","bemerkung":null,"pflanzjahr":null,"entnahmejahr":null,"marker-size":"small","marker-symbol":"park2","marker-color":"#A3DDAD"},"geometry":{"type":"Point","coordinates":[15.43680074204139,47.0744863809514],"bbox":[15.43680074204139,47.0744863809514,15.43680074204139,47.0744863809514]}},{"type":"Feature","properties":{"nummer":47268,"baumbezeichnung_botanisch":"Acer campestre","baumbezeichnung_deutsch":"Feldahorn","baumtyp":"Laub","bemerkung":null,"pflanzjahr":null,"entnahmejahr":null,"marker-size":"small","marker-symbol":"park2","marker-color":"#A3DDAD"},"geometry":{"type":"Point","coordinates":[15.4368372202002,47.07443026282657],"bbox":[15.4368372202002,47.07443026282657,15.4368372202002,47.07443026282657]}},{"type":"Feature","properties":{"nummer":47269,"baumbezeichnung_botanisch":"Acer campestre","baumbezeichnung_deutsch":"Feldahorn","baumtyp":"Laub","bemerkung":null,"pflanzjahr":null,"entnahmejahr":null,"marker-size":"small","marker-symbol":"park2","marker-color":"#A3DDAD"},"geometry":{"type":"Point","coordinates":[15.43689542483534,47.07432505010612],"bbox":[15.43689542483534,47.07432505010612,15.43689542483534,47.07432505010612]}},{"type":"Feature","properties":{"nummer":48226,"baumbezeichnung_botanisch":"Fraxinus excelsior","baumbezeichnung_deutsch":"Esche","baumtyp":"Laub","bemerkung":null,"pflanzjahr":null,"entnahmejahr":null,"marker-size":"small","marker-symbol":"park2","marker-color":"#A3DDAD"},"geometry":{"type":"Point","coordinates":[15.43641370772306,47.07400386852178],"bbox":[15.43641370772306,47.07400386852178,15.43641370772306,47.07400386852178]}}]}