{"type":"FeatureCollection","features":[{"type":"Feature","properties":{"nummer":19182,"baumbezeichnung_botanisch":"Ailanthus altissima","baumbezeichnung_deutsch":"Götterbaum","baumtyp":"Laub","bemerkung":null,"pflanzjahr":null,"entnahmejahr":null,"marker-size":"small","marker-symbol":"park2","marker-color":"#A3DDAD"},"geometry":{"type":"Point","coordinates":[15.43619617675985,47.07296858315722],"bbox":[15.43619617675985,47.07296858315722,15.43619617675985,47.07296858315722]}},{"type":"Feature","properties":{"nummer":16395,"baumbezeichnung_botanisch":"Juglans regia","baumbezeichnung_deutsch":"Walnuß","baumtyp":"Laub","bemerkung":null,"pflanzjahr":null,"entnahmejahr":null,"marker-size":"small","marker-symbol":"park2","marker-color":"#A3DDAD"},"geometry":{"type":"Point","coordinates":[15.4363063608638,47.07301417257001],"bbox":[15.4363063608638,47.07301417257001,15.4363063608638,47.07301417257001]}},{"type":"Feature","properties":{"nummer":27491,"baumbezeichnung_botanisch":"Picea abies","baumbezeichnung_deutsch":"Rotfichte","baumtyp":"Nadel","bemerkung":null,"pflanzjahr":null,"entnahmejahr":null,"marker-size":"small","marker-symbol":"park","marker-color":"#3BB451"},"geometry":{"type":"Point","coordinates":[15.43706544109252,47.07309678981536],"bbox":[15.43706544109252,47.07309678981536,15.43706544109252,47.07309678981536]}},{"type":"Feature","properties":{"nummer":48230,"baumbezeichnung_botanisch":"Fraxinus excelsior","baumbezeichnung_deutsch":"Esche","baumtyp":"Laub","bemerkung":null,"pflanzjahr":null,"entnahmejahr":null,"marker-size":"small","marker-symbol":"park2","marker-color":"#A3DDAD"},"geometry":{"type":"Point","coordinates":[15.43708183371423,47.07331099531903],"bbox":[15.43708183371423,47.07331099531903,15.43708183371423,47.07331099531903]}},{"type":"Feature","properties":{"nummer":48235,"baumbezeichnung_botanisch":"Fraxinus excelsior","baumbezeichnung_deutsch":"Esche","baumtyp":"Laub","bemerkung":null,"pflanzjahr":null,"entnahmejahr":"2012","marker-size":"small","marker-symbol":"park2","marker-color":"#B3B3B3"},"geometry":{"type":"Point","coordinates":[15.43714784941111,47.07343632941753],"bbox":[15.43714784941111,47.07343632941753,15.43714784941111,47.07343632941753]}},{"type":"Feature","properties":{"nummer":48234,"baumbezeichnung_botanisch":"Acer campestre","baumbezeichnung_deutsch":"Feldahorn","baumtyp":"Laub","bemerkung":null,"pflanzjahr":null,"entnahmejahr":null,"marker-size":"small","marker-symbol":"park2","marker-color":"#A3DDAD"},"geometry":{"type":"Point","coordinates":[15.43715457435033,47.07340464933776],"bbox":[15.43715457435033,47.07340464933776,15.43715457435033,47.07340464933776]}},{"type":"Feature","properties":{"nummer":48229,"baumbezeichnung_botanisch":"Acer campestre","baumbezeichnung_deutsch":"Feldahorn","baumtyp":"Laub","bemerkung":null,"pflanzjahr":null,"entnahmejahr":null,"marker-size":"small","marker-symbol":"park2","marker-color":"#A3DDAD"},"geometry":{"type":"Point","coordinates":[15.4367431459955,47.07384038810944],"bbox":[15.4367431459955,47.07384038810944,15.4367431459955,47.07384038810944]}},{"type":"Feature","properties":{"nummer":48228,"baumbezeichnung_botanisch":"Acer campestre","baumbezeichnung_deutsch":"Feldahorn","baumtyp":"Laub","bemerkung":null,"pflanzjahr":null,"entnahmejahr":null,"marker-size":"small","marker-symbol":"park2","marker-color":"#A3DDAD"},"geometry":{"type":"Point","coordinates":[15.43671357197926,47.07384967624005],"bbox":[15.43671357197926,47.07384967624005,15.43671357197926,47.07384967624005]}}]}