{"type":"FeatureCollection","features":[{"type":"Feature","properties":{"nummer":2756,"baumbezeichnung_botanisch":"Larix decidua","baumbezeichnung_deutsch":"Europäische Lärche","baumtyp":"Nadel","bemerkung":null,"pflanzjahr":null,"entnahmejahr":null,"marker-size":"small","marker-symbol":"park","marker-color":"#3BB451"},"geometry":{"type":"Point","coordinates":[15.42955454135184,47.11379623860657],"bbox":[15.42955454135184,47.11379623860657,15.42955454135184,47.11379623860657]}},{"type":"Feature","properties":{"nummer":19791,"baumbezeichnung_botanisch":"Prunus serrulata 'Kanzan'","baumbezeichnung_deutsch":"Japanische Blütenkirsche","baumtyp":"Laub","bemerkung":null,"pflanzjahr":null,"entnahmejahr":null,"marker-size":"small","marker-symbol":"park2","marker-color":"#A3DDAD"},"geometry":{"type":"Point","coordinates":[15.42949639284446,47.11382968956205],"bbox":[15.42949639284446,47.11382968956205,15.42949639284446,47.11382968956205]}},{"type":"Feature","properties":{"nummer":6005,"baumbezeichnung_botanisch":"Salix alba 'Tristis'","baumbezeichnung_deutsch":"Trauerweide","baumtyp":"Laub","bemerkung":null,"pflanzjahr":"2007","entnahmejahr":null,"marker-size":"small","marker-symbol":"park2","marker-color":"#A3DDAD"},"geometry":{"type":"Point","coordinates":[15.42905625015038,47.11321715204429],"bbox":[15.42905625015038,47.11321715204429,15.42905625015038,47.11321715204429]}},{"type":"Feature","properties":{"nummer":14041,"baumbezeichnung_botanisch":"Salix alba 'Tristis'","baumbezeichnung_deutsch":"Trauerweide","baumtyp":"Laub","bemerkung":null,"pflanzjahr":null,"entnahmejahr":"2013","marker-size":"small","marker-symbol":"park2","marker-color":"#B3B3B3"},"geometry":{"type":"Point","coordinates":[15.42899039974519,47.11316404915188],"bbox":[15.42899039974519,47.11316404915188,15.42899039974519,47.11316404915188]}},{"type":"Feature","properties":{"nummer":23315,"baumbezeichnung_botanisch":"Prunus cerasifera","baumbezeichnung_deutsch":"Kirschpflaume","baumtyp":"Laub","bemerkung":null,"pflanzjahr":null,"entnahmejahr":null,"marker-size":"small","marker-symbol":"park2","marker-color":"#A3DDAD"},"geometry":{"type":"Point","coordinates":[15.42905421986192,47.11318558680195],"bbox":[15.42905421986192,47.11318558680195,15.42905421986192,47.11318558680195]}},{"type":"Feature","properties":{"nummer":643,"baumbezeichnung_botanisch":"Picea abies","baumbezeichnung_deutsch":"Rotfichte","baumtyp":"Nadel","bemerkung":null,"pflanzjahr":null,"entnahmejahr":null,"marker-size":"small","marker-symbol":"park","marker-color":"#3BB451"},"geometry":{"type":"Point","coordinates":[15.42916994624656,47.11317423498009],"bbox":[15.42916994624656,47.11317423498009,15.42916994624656,47.11317423498009]}},{"type":"Feature","properties":{"nummer":6006,"baumbezeichnung_botanisch":"Salix alba 'Tristis'","baumbezeichnung_deutsch":"Trauerweide","baumtyp":"Laub","bemerkung":null,"pflanzjahr":null,"entnahmejahr":null,"marker-size":"small","marker-symbol":"park2","marker-color":"#A3DDAD"},"geometry":{"type":"Point","coordinates":[15.42908914693178,47.113245456382],"bbox":[15.42908914693178,47.113245456382,15.42908914693178,47.113245456382]}},{"type":"Feature","properties":{"nummer":24143,"baumbezeichnung_botanisch":"Populus sp.","baumbezeichnung_deutsch":"Pappel","baumtyp":"Laub","bemerkung":null,"pflanzjahr":null,"entnahmejahr":null,"marker-size":"small","marker-symbol":"park2","marker-color":"#A3DDAD"},"geometry":{"type":"Point","coordinates":[15.42924498202677,47.11339584780145],"bbox":[15.42924498202677,47.11339584780145,15.42924498202677,47.11339584780145]}},{"type":"Feature","properties":{"nummer":10826,"baumbezeichnung_botanisch":"Juglans regia","baumbezeichnung_deutsch":"Walnuß","baumtyp":"Laub","bemerkung":null,"pflanzjahr":null,"entnahmejahr":null,"marker-size":"small","marker-symbol":"park2","marker-color":"#A3DDAD"},"geometry":{"type":"Point","coordinates":[15.42929998154651,47.11337858017927],"bbox":[15.42929998154651,47.11337858017927,15.42929998154651,47.11337858017927]}},{"type":"Feature","properties":{"nummer":24332,"baumbezeichnung_botanisch":"Aesculus hippocastanum","baumbezeichnung_deutsch":"Gemeine Roßkastanie","baumtyp":"Laub","bemerkung":null,"pflanzjahr":null,"entnahmejahr":null,"marker-size":"small","marker-symbol":"park2","marker-color":"#A3DDAD"},"geometry":{"type":"Point","coordinates":[15.42931481804248,47.11341199904449],"bbox":[15.42931481804248,47.11341199904449,15.42931481804248,47.11341199904449]}},{"type":"Feature","properties":{"nummer":10827,"baumbezeichnung_botanisch":"Chamaecyparis sp.","baumbezeichnung_deutsch":"Scheinzypresse","baumtyp":"Nadel","bemerkung":null,"pflanzjahr":null,"entnahmejahr":null,"marker-size":"small","marker-symbol":"park","marker-color":"#3BB451"},"geometry":{"type":"Point","coordinates":[15.42935756508409,47.11346491973141],"bbox":[15.42935756508409,47.11346491973141,15.42935756508409,47.11346491973141]}},{"type":"Feature","properties":{"nummer":8591,"baumbezeichnung_botanisch":"Carpinus betulus","baumbezeichnung_deutsch":"Hain - oder Weißbuche","baumtyp":"Laub","bemerkung":null,"pflanzjahr":null,"entnahmejahr":null,"marker-size":"small","marker-symbol":"park2","marker-color":"#A3DDAD"},"geometry":{"type":"Point","coordinates":[15.42939043241456,47.11349497597929],"bbox":[15.42939043241456,47.11349497597929,15.42939043241456,47.11349497597929]}},{"type":"Feature","properties":{"nummer":8010,"baumbezeichnung_botanisch":"Aesculus hippocastanum","baumbezeichnung_deutsch":"Gemeine Roßkastanie","baumtyp":"Laub","bemerkung":null,"pflanzjahr":null,"entnahmejahr":null,"marker-size":"small","marker-symbol":"park2","marker-color":"#A3DDAD"},"geometry":{"type":"Point","coordinates":[15.42949777430846,47.11352386956166],"bbox":[15.42949777430846,47.11352386956166,15.42949777430846,47.11352386956166]}},{"type":"Feature","properties":{"nummer":8011,"baumbezeichnung_botanisch":"Acer pseudoplatanus","baumbezeichnung_deutsch":"Bergahorn","baumtyp":"Laub","bemerkung":null,"pflanzjahr":null,"entnahmejahr":null,"marker-size":"small","marker-symbol":"park2","marker-color":"#A3DDAD"},"geometry":{"type":"Point","coordinates":[15.4295387576154,47.11352945247731],"bbox":[15.4295387576154,47.11352945247731,15.4295387576154,47.11352945247731]}},{"type":"Feature","properties":{"nummer":6007,"baumbezeichnung_botanisch":"Acer pseudoplatanus","baumbezeichnung_deutsch":"Bergahorn","baumtyp":"Laub","bemerkung":null,"pflanzjahr":null,"entnahmejahr":null,"marker-size":"small","marker-symbol":"park2","marker-color":"#A3DDAD"},"geometry":{"type":"Point","coordinates":[15.42958272665915,47.11351052057589],"bbox":[15.42958272665915,47.11351052057589,15.42958272665915,47.11351052057589]}},{"type":"Feature","properties":{"nummer":5195,"baumbezeichnung_botanisch":"Acer pseudoplatanus","baumbezeichnung_deutsch":"Bergahorn","baumtyp":"Laub","bemerkung":null,"pflanzjahr":null,"entnahmejahr":null,"marker-size":"small","marker-symbol":"park2","marker-color":"#A3DDAD"},"geometry":{"type":"Point","coordinates":[15.42982122044866,47.11337569537228],"bbox":[15.42982122044866,47.11337569537228,15.42982122044866,47.11337569537228]}},{"type":"Feature","properties":{"nummer":5196,"baumbezeichnung_botanisch":"Acer pseudoplatanus","baumbezeichnung_deutsch":"Bergahorn","baumtyp":"Laub","bemerkung":null,"pflanzjahr":null,"entnahmejahr":null,"marker-size":"small","marker-symbol":"park2","marker-color":"#A3DDAD"},"geometry":{"type":"Point","coordinates":[15.4299093042071,47.11332906773249],"bbox":[15.4299093042071,47.11332906773249,15.4299093042071,47.11332906773249]}},{"type":"Feature","properties":{"nummer":13620,"baumbezeichnung_botanisch":"Prunus avium","baumbezeichnung_deutsch":"Vogelkirsche","baumtyp":"Laub","bemerkung":null,"pflanzjahr":null,"entnahmejahr":null,"marker-size":"small","marker-symbol":"park2","marker-color":"#A3DDAD"},"geometry":{"type":"Point","coordinates":[15.42996354105306,47.11331021782813],"bbox":[15.42996354105306,47.11331021782813,15.42996354105306,47.11331021782813]}},{"type":"Feature","properties":{"nummer":23084,"baumbezeichnung_botanisch":"Fraxinus excelsior","baumbezeichnung_deutsch":"Esche","baumtyp":"Laub","bemerkung":null,"pflanzjahr":null,"entnahmejahr":null,"marker-size":"small","marker-symbol":"park2","marker-color":"#A3DDAD"},"geometry":{"type":"Point","coordinates":[15.43015218806159,47.11323809585327],"bbox":[15.43015218806159,47.11323809585327,15.43015218806159,47.11323809585327]}},{"type":"Feature","properties":{"nummer":10594,"baumbezeichnung_botanisch":"Picea abies","baumbezeichnung_deutsch":"Rotfichte","baumtyp":"Nadel","bemerkung":null,"pflanzjahr":null,"entnahmejahr":null,"marker-size":"small","marker-symbol":"park","marker-color":"#3BB451"},"geometry":{"type":"Point","coordinates":[15.43015045327353,47.11318900525687],"bbox":[15.43015045327353,47.11318900525687,15.43015045327353,47.11318900525687]}},{"type":"Feature","properties":{"nummer":8012,"baumbezeichnung_botanisch":"Aesculus hippocastanum","baumbezeichnung_deutsch":"Gemeine Roßkastanie","baumtyp":"Laub","bemerkung":null,"pflanzjahr":null,"entnahmejahr":null,"marker-size":"small","marker-symbol":"park2","marker-color":"#A3DDAD"},"geometry":{"type":"Point","coordinates":[15.4299450875115,47.11318738143626],"bbox":[15.4299450875115,47.11318738143626,15.4299450875115,47.11318738143626]}},{"type":"Feature","properties":{"nummer":26612,"baumbezeichnung_botanisch":"Aesculus hippocastanum","baumbezeichnung_deutsch":"Gemeine Roßkastanie","baumtyp":"Laub","bemerkung":null,"pflanzjahr":null,"entnahmejahr":null,"marker-size":"small","marker-symbol":"park2","marker-color":"#A3DDAD"},"geometry":{"type":"Point","coordinates":[15.42986783617299,47.11320079162868],"bbox":[15.42986783617299,47.11320079162868,15.42986783617299,47.11320079162868]}}]}