{"type":"FeatureCollection","features":[{"type":"Feature","properties":{"nummer":1060,"baumbezeichnung_botanisch":"Prunus avium","baumbezeichnung_deutsch":"Vogelkirsche","baumtyp":"Laub","bemerkung":null,"pflanzjahr":null,"entnahmejahr":"2012","marker-size":"small","marker-symbol":"park2","marker-color":"#B3B3B3"},"geometry":{"type":"Point","coordinates":[15.43022257028815,47.0843230739126],"bbox":[15.43022257028815,47.0843230739126,15.43022257028815,47.0843230739126]}},{"type":"Feature","properties":{"nummer":16699,"baumbezeichnung_botanisch":"Prunus domestica","baumbezeichnung_deutsch":"Pflaume","baumtyp":"Laub","bemerkung":null,"pflanzjahr":null,"entnahmejahr":null,"marker-size":"small","marker-symbol":"park2","marker-color":"#A3DDAD"},"geometry":{"type":"Point","coordinates":[15.43011491717191,47.08433902327442],"bbox":[15.43011491717191,47.08433902327442,15.43011491717191,47.08433902327442]}},{"type":"Feature","properties":{"nummer":12597,"baumbezeichnung_botanisch":"Juglans regia","baumbezeichnung_deutsch":"Walnuß","baumtyp":"Laub","bemerkung":"Baum komplett abgetrocknet, auf Grund des dichten Muruferbestandes und des gegenüberstockenden Baumes drzt kein Ersatz geplant","pflanzjahr":null,"entnahmejahr":null,"marker-size":"small","marker-symbol":"park2","marker-color":"#A3DDAD"},"geometry":{"type":"Point","coordinates":[15.42767715045294,47.08331614972172],"bbox":[15.42767715045294,47.08331614972172,15.42767715045294,47.08331614972172]}},{"type":"Feature","properties":{"nummer":3286,"baumbezeichnung_botanisch":"Prunus cerasifera 'Nigra'","baumbezeichnung_deutsch":"Echte Blutpflaume","baumtyp":"Laub","bemerkung":null,"pflanzjahr":null,"entnahmejahr":null,"marker-size":"small","marker-symbol":"park2","marker-color":"#A3DDAD"},"geometry":{"type":"Point","coordinates":[15.42774907983417,47.08335168414769],"bbox":[15.42774907983417,47.08335168414769,15.42774907983417,47.08335168414769]}},{"type":"Feature","properties":{"nummer":12596,"baumbezeichnung_botanisch":"Juglans regia","baumbezeichnung_deutsch":"Walnuß","baumtyp":"Laub","bemerkung":null,"pflanzjahr":null,"entnahmejahr":null,"marker-size":"small","marker-symbol":"park2","marker-color":"#A3DDAD"},"geometry":{"type":"Point","coordinates":[15.42757148844943,47.08339103202563],"bbox":[15.42757148844943,47.08339103202563,15.42757148844943,47.08339103202563]}},{"type":"Feature","properties":{"nummer":28204,"baumbezeichnung_botanisch":"Juglans regia","baumbezeichnung_deutsch":"Walnuß","baumtyp":"Laub","bemerkung":null,"pflanzjahr":"1900","entnahmejahr":null,"marker-size":"small","marker-symbol":"park2","marker-color":"#A3DDAD"},"geometry":{"type":"Point","coordinates":[15.4277803748333,47.08324520581781],"bbox":[15.4277803748333,47.08324520581781,15.4277803748333,47.08324520581781]}},{"type":"Feature","properties":{"nummer":7946,"baumbezeichnung_botanisch":"Ailanthus altissima","baumbezeichnung_deutsch":"Götterbaum","baumtyp":"Laub","bemerkung":null,"pflanzjahr":null,"entnahmejahr":null,"marker-size":"small","marker-symbol":"park2","marker-color":"#A3DDAD"},"geometry":{"type":"Point","coordinates":[15.4280396573735,47.08466219615755],"bbox":[15.4280396573735,47.08466219615755,15.4280396573735,47.08466219615755]}}]}