{"type":"FeatureCollection","features":[{"type":"Feature","properties":{"nummer":753,"baumbezeichnung_botanisch":"Acer saccharinum","baumbezeichnung_deutsch":"Zuckerahorn","baumtyp":"Laub","bemerkung":null,"pflanzjahr":null,"entnahmejahr":null,"marker-size":"small","marker-symbol":"park2","marker-color":"#A3DDAD"},"geometry":{"type":"Point","coordinates":[15.46609381515233,47.02263033004652],"bbox":[15.46609381515233,47.02263033004652,15.46609381515233,47.02263033004652]}},{"type":"Feature","properties":{"nummer":856,"baumbezeichnung_botanisch":"Acer saccharinum","baumbezeichnung_deutsch":"Zuckerahorn","baumtyp":"Laub","bemerkung":null,"pflanzjahr":null,"entnahmejahr":null,"marker-size":"small","marker-symbol":"park2","marker-color":"#A3DDAD"},"geometry":{"type":"Point","coordinates":[15.46607535072921,47.022747251872],"bbox":[15.46607535072921,47.022747251872,15.46607535072921,47.022747251872]}},{"type":"Feature","properties":{"nummer":25623,"baumbezeichnung_botanisch":"Acer negundo","baumbezeichnung_deutsch":"Eschenahorn","baumtyp":"Laub","bemerkung":null,"pflanzjahr":null,"entnahmejahr":null,"marker-size":"small","marker-symbol":"park2","marker-color":"#A3DDAD"},"geometry":{"type":"Point","coordinates":[15.46610909200898,47.02270974656723],"bbox":[15.46610909200898,47.02270974656723,15.46610909200898,47.02270974656723]}},{"type":"Feature","properties":{"nummer":6997,"baumbezeichnung_botanisch":"Fraxinus excelsior","baumbezeichnung_deutsch":"Esche","baumtyp":"Laub","bemerkung":null,"pflanzjahr":null,"entnahmejahr":null,"marker-size":"small","marker-symbol":"park2","marker-color":"#A3DDAD"},"geometry":{"type":"Point","coordinates":[15.46647714308712,47.02245233681181],"bbox":[15.46647714308712,47.02245233681181,15.46647714308712,47.02245233681181]}},{"type":"Feature","properties":{"nummer":20912,"baumbezeichnung_botanisch":"Tilia cordata","baumbezeichnung_deutsch":"Winterlinde","baumtyp":"Laub","bemerkung":null,"pflanzjahr":null,"entnahmejahr":null,"marker-size":"small","marker-symbol":"park2","marker-color":"#A3DDAD"},"geometry":{"type":"Point","coordinates":[15.46670339252262,47.02251718301673],"bbox":[15.46670339252262,47.02251718301673,15.46670339252262,47.02251718301673]}},{"type":"Feature","properties":{"nummer":20477,"baumbezeichnung_botanisch":"Juglans regia","baumbezeichnung_deutsch":"Walnuß","baumtyp":"Laub","bemerkung":null,"pflanzjahr":null,"entnahmejahr":null,"marker-size":"small","marker-symbol":"park2","marker-color":"#A3DDAD"},"geometry":{"type":"Point","coordinates":[15.46693538656723,47.0226631556631],"bbox":[15.46693538656723,47.0226631556631,15.46693538656723,47.0226631556631]}},{"type":"Feature","properties":{"nummer":20669,"baumbezeichnung_botanisch":"Tsuga canadensis","baumbezeichnung_deutsch":"Östliche Hemlocksschierlingstanne","baumtyp":"Nadel","bemerkung":null,"pflanzjahr":null,"entnahmejahr":null,"marker-size":"small","marker-symbol":"park","marker-color":"#3BB451"},"geometry":{"type":"Point","coordinates":[15.46687661375488,47.02254187210149],"bbox":[15.46687661375488,47.02254187210149,15.46687661375488,47.02254187210149]}},{"type":"Feature","properties":{"nummer":12542,"baumbezeichnung_botanisch":"Betula pendula","baumbezeichnung_deutsch":"Sandbirke, Weißbirke","baumtyp":"Laub","bemerkung":null,"pflanzjahr":null,"entnahmejahr":null,"marker-size":"small","marker-symbol":"park2","marker-color":"#A3DDAD"},"geometry":{"type":"Point","coordinates":[15.46705032387556,47.02272633488629],"bbox":[15.46705032387556,47.02272633488629,15.46705032387556,47.02272633488629]}},{"type":"Feature","properties":{"nummer":860,"baumbezeichnung_botanisch":"Betula pendula","baumbezeichnung_deutsch":"Sandbirke, Weißbirke","baumtyp":"Laub","bemerkung":null,"pflanzjahr":null,"entnahmejahr":null,"marker-size":"small","marker-symbol":"park2","marker-color":"#A3DDAD"},"geometry":{"type":"Point","coordinates":[15.46709093389124,47.02260580571741],"bbox":[15.46709093389124,47.02260580571741,15.46709093389124,47.02260580571741]}},{"type":"Feature","properties":{"nummer":17535,"baumbezeichnung_botanisch":"Chamaecyparis pisifera 'Squarrosa'","baumbezeichnung_deutsch":"Silber Sawarascheinzypresse","baumtyp":"Nadel","bemerkung":null,"pflanzjahr":null,"entnahmejahr":null,"marker-size":"small","marker-symbol":"park","marker-color":"#3BB451"},"geometry":{"type":"Point","coordinates":[15.46707485895435,47.02257547436267],"bbox":[15.46707485895435,47.02257547436267,15.46707485895435,47.02257547436267]}}]}