{"type":"FeatureCollection","features":[{"type":"Feature","properties":{"nummer":15387,"baumbezeichnung_botanisch":"Tilia platyphyllos","baumbezeichnung_deutsch":"Sommerlinde","baumtyp":"Laub","altersklassifizierung":"alt","bemerkung":null,"pflanzjahr":null,"entnahmejahr":null,"baumpatenschaft":null,"objectid":2029},"geometry":{"type":"Point","coordinates":[15.398279716739594,47.09873722695297],"bbox":[15.398279716739594,47.09873722695297,15.398279716739594,47.09873722695297]}},{"type":"Feature","properties":{"nummer":15390,"baumbezeichnung_botanisch":"Sophora japonica","baumbezeichnung_deutsch":"Schnurbaum","baumtyp":"Laub","altersklassifizierung":"alt","bemerkung":null,"pflanzjahr":null,"entnahmejahr":null,"baumpatenschaft":null,"objectid":18529},"geometry":{"type":"Point","coordinates":[15.398499408866156,47.09878448593404],"bbox":[15.398499408866156,47.09878448593404,15.398499408866156,47.09878448593404]}},{"type":"Feature","properties":{"nummer":15384,"baumbezeichnung_botanisch":"Tilia platyphyllos","baumbezeichnung_deutsch":"Sommerlinde","baumtyp":"Laub","altersklassifizierung":"jung","bemerkung":null,"pflanzjahr":null,"entnahmejahr":null,"baumpatenschaft":null,"objectid":16664},"geometry":{"type":"Point","coordinates":[15.39810413977887,47.09878408975769],"bbox":[15.39810413977887,47.09878408975769,15.39810413977887,47.09878408975769]}},{"type":"Feature","properties":{"nummer":15389,"baumbezeichnung_botanisch":"Prunus serrulata 'Kanzan'","baumbezeichnung_deutsch":"Japanische Blütenkirsche","baumtyp":"Laub","altersklassifizierung":"mittel","bemerkung":null,"pflanzjahr":null,"entnahmejahr":null,"baumpatenschaft":null,"objectid":13483},"geometry":{"type":"Point","coordinates":[15.398387882180636,47.09873811267773],"bbox":[15.398387882180636,47.09873811267773,15.398387882180636,47.09873811267773]}},{"type":"Feature","properties":{"nummer":15386,"baumbezeichnung_botanisch":"Tilia platyphyllos","baumbezeichnung_deutsch":"Sommerlinde","baumtyp":"Laub","altersklassifizierung":"jung","bemerkung":null,"pflanzjahr":null,"entnahmejahr":null,"baumpatenschaft":null,"objectid":14420},"geometry":{"type":"Point","coordinates":[15.398205332543949,47.09870820420646],"bbox":[15.398205332543949,47.09870820420646,15.398205332543949,47.09870820420646]}},{"type":"Feature","properties":{"nummer":15385,"baumbezeichnung_botanisch":"Tilia platyphyllos","baumbezeichnung_deutsch":"Sommerlinde","baumtyp":"Laub","altersklassifizierung":"mittel","bemerkung":null,"pflanzjahr":null,"entnahmejahr":null,"baumpatenschaft":null,"objectid":14545},"geometry":{"type":"Point","coordinates":[15.398150601176226,47.098744693257366],"bbox":[15.398150601176226,47.098744693257366,15.398150601176226,47.098744693257366]}},{"type":"Feature","properties":{"nummer":15397,"baumbezeichnung_botanisch":"Aesculus hippocastanum","baumbezeichnung_deutsch":"Gemeine Roßkastanie","baumtyp":"Laub","altersklassifizierung":"mittel","bemerkung":null,"pflanzjahr":null,"entnahmejahr":null,"baumpatenschaft":null,"objectid":29127},"geometry":{"type":"Point","coordinates":[15.398822491378288,47.09897188186147],"bbox":[15.398822491378288,47.09897188186147,15.398822491378288,47.09897188186147]}},{"type":"Feature","properties":{"nummer":15396,"baumbezeichnung_botanisch":"Juglans regia","baumbezeichnung_deutsch":"Walnuß","baumtyp":"Laub","altersklassifizierung":"mittel","bemerkung":null,"pflanzjahr":null,"entnahmejahr":null,"baumpatenschaft":null,"objectid":29128},"geometry":{"type":"Point","coordinates":[15.399008196231437,47.099015051388974],"bbox":[15.399008196231437,47.099015051388974,15.399008196231437,47.099015051388974]}},{"type":"Feature","properties":{"nummer":25000,"baumbezeichnung_botanisch":"Salix alba 'Tristis'","baumbezeichnung_deutsch":"Trauerweide","baumtyp":"Laub","altersklassifizierung":"jung","bemerkung":null,"pflanzjahr":null,"entnahmejahr":null,"baumpatenschaft":null,"objectid":29131},"geometry":{"type":"Point","coordinates":[15.399162663154616,47.09905082387532],"bbox":[15.399162663154616,47.09905082387532,15.399162663154616,47.09905082387532]}}]}