{"type":"FeatureCollection","features":[{"type":"Feature","properties":{"nummer":11480,"baumbezeichnung_botanisch":"Prunus 'Hauszwetschke'","baumbezeichnung_deutsch":"Fruchtkirsche","baumtyp":"Laub","bemerkung":null,"pflanzjahr":"2009","entnahmejahr":null,"marker-size":"small","marker-symbol":"park2","marker-color":"#A3DDAD"},"geometry":{"type":"Point","coordinates":[15.39237009187992,47.04879301426187],"bbox":[15.39237009187992,47.04879301426187,15.39237009187992,47.04879301426187]}},{"type":"Feature","properties":{"nummer":2372,"baumbezeichnung_botanisch":"Aesculus flava","baumbezeichnung_deutsch":"Gelbe Pavie","baumtyp":"Laub","bemerkung":null,"pflanzjahr":"2005","entnahmejahr":null,"marker-size":"small","marker-symbol":"park2","marker-color":"#A3DDAD"},"geometry":{"type":"Point","coordinates":[15.39401999138854,47.04894992987737],"bbox":[15.39401999138854,47.04894992987737,15.39401999138854,47.04894992987737]}},{"type":"Feature","properties":{"nummer":23714,"baumbezeichnung_botanisch":"Aesculus hippocastanum","baumbezeichnung_deutsch":"Gemeine Roßkastanie","baumtyp":"Laub","bemerkung":null,"pflanzjahr":null,"entnahmejahr":null,"marker-size":"small","marker-symbol":"park2","marker-color":"#A3DDAD"},"geometry":{"type":"Point","coordinates":[15.39428877064795,47.04891741969801],"bbox":[15.39428877064795,47.04891741969801,15.39428877064795,47.04891741969801]}},{"type":"Feature","properties":{"nummer":29322,"baumbezeichnung_botanisch":"Aesculus hippocastanum","baumbezeichnung_deutsch":"Gemeine Roßkastanie","baumtyp":"Laub","bemerkung":null,"pflanzjahr":null,"entnahmejahr":null,"marker-size":"small","marker-symbol":"park2","marker-color":"#A3DDAD"},"geometry":{"type":"Point","coordinates":[15.3941553037288,47.04893359250561],"bbox":[15.3941553037288,47.04893359250561,15.3941553037288,47.04893359250561]}},{"type":"Feature","properties":{"nummer":15088,"baumbezeichnung_botanisch":"Aesculus hippocastanum","baumbezeichnung_deutsch":"Gemeine Roßkastanie","baumtyp":"Laub","bemerkung":null,"pflanzjahr":null,"entnahmejahr":null,"marker-size":"small","marker-symbol":"park2","marker-color":"#A3DDAD"},"geometry":{"type":"Point","coordinates":[15.39370872444148,47.04898128019369],"bbox":[15.39370872444148,47.04898128019369,15.39370872444148,47.04898128019369]}},{"type":"Feature","properties":{"nummer":21943,"baumbezeichnung_botanisch":"Aesculus hippocastanum","baumbezeichnung_deutsch":"Gemeine Roßkastanie","baumtyp":"Laub","bemerkung":null,"pflanzjahr":null,"entnahmejahr":null,"marker-size":"small","marker-symbol":"park2","marker-color":"#A3DDAD"},"geometry":{"type":"Point","coordinates":[15.39304598654219,47.04906253695994],"bbox":[15.39304598654219,47.04906253695994,15.39304598654219,47.04906253695994]}},{"type":"Feature","properties":{"nummer":2370,"baumbezeichnung_botanisch":"Aesculus hippocastanum","baumbezeichnung_deutsch":"Gemeine Roßkastanie","baumtyp":"Laub","bemerkung":null,"pflanzjahr":null,"entnahmejahr":null,"marker-size":"small","marker-symbol":"park2","marker-color":"#A3DDAD"},"geometry":{"type":"Point","coordinates":[15.39255109262028,47.04916325330267],"bbox":[15.39255109262028,47.04916325330267,15.39255109262028,47.04916325330267]}},{"type":"Feature","properties":{"nummer":14294,"baumbezeichnung_botanisch":"Platanus x acerifolia","baumbezeichnung_deutsch":"Platane","baumtyp":"Laub","bemerkung":null,"pflanzjahr":null,"entnahmejahr":null,"marker-size":"small","marker-symbol":"park2","marker-color":"#A3DDAD"},"geometry":{"type":"Point","coordinates":[15.39456524199781,47.04893237649068],"bbox":[15.39456524199781,47.04893237649068,15.39456524199781,47.04893237649068]}},{"type":"Feature","properties":{"nummer":19318,"baumbezeichnung_botanisch":"Aesculus hippocastanum","baumbezeichnung_deutsch":"Gemeine Roßkastanie","baumtyp":"Laub","bemerkung":null,"pflanzjahr":null,"entnahmejahr":null,"marker-size":"small","marker-symbol":"park2","marker-color":"#A3DDAD"},"geometry":{"type":"Point","coordinates":[15.39442813151388,47.04895517605522],"bbox":[15.39442813151388,47.04895517605522,15.39442813151388,47.04895517605522]}},{"type":"Feature","properties":{"nummer":17287,"baumbezeichnung_botanisch":"Aesculus hippocastanum","baumbezeichnung_deutsch":"Gemeine Roßkastanie","baumtyp":"Laub","bemerkung":null,"pflanzjahr":null,"entnahmejahr":"2011","marker-size":"small","marker-symbol":"park2","marker-color":"#B3B3B3"},"geometry":{"type":"Point","coordinates":[15.39416609301845,47.04898603293677],"bbox":[15.39416609301845,47.04898603293677,15.39416609301845,47.04898603293677]}},{"type":"Feature","properties":{"nummer":18208,"baumbezeichnung_botanisch":"Aesculus hippocastanum","baumbezeichnung_deutsch":"Gemeine Roßkastanie","baumtyp":"Laub","bemerkung":null,"pflanzjahr":null,"entnahmejahr":null,"marker-size":"small","marker-symbol":"park2","marker-color":"#A3DDAD"},"geometry":{"type":"Point","coordinates":[15.39389841037078,47.04901603321433],"bbox":[15.39389841037078,47.04901603321433,15.39389841037078,47.04901603321433]}},{"type":"Feature","properties":{"nummer":20489,"baumbezeichnung_botanisch":"Crataegus sp.","baumbezeichnung_deutsch":"Weißdorn","baumtyp":"Laub","bemerkung":null,"pflanzjahr":null,"entnahmejahr":null,"marker-size":"small","marker-symbol":"park2","marker-color":"#A3DDAD"},"geometry":{"type":"Point","coordinates":[15.39258575636879,47.04824544427107],"bbox":[15.39258575636879,47.04824544427107,15.39258575636879,47.04824544427107]}},{"type":"Feature","properties":{"nummer":12164,"baumbezeichnung_botanisch":"Prunus avium","baumbezeichnung_deutsch":"Vogelkirsche","baumtyp":"Laub","bemerkung":null,"pflanzjahr":null,"entnahmejahr":null,"marker-size":"small","marker-symbol":"park2","marker-color":"#A3DDAD"},"geometry":{"type":"Point","coordinates":[15.39247869805719,47.04822869644908],"bbox":[15.39247869805719,47.04822869644908,15.39247869805719,47.04822869644908]}},{"type":"Feature","properties":{"nummer":15614,"baumbezeichnung_botanisch":"Cornus sanguinea","baumbezeichnung_deutsch":"Echter Hartriegel","baumtyp":"Laub","bemerkung":null,"pflanzjahr":null,"entnahmejahr":null,"marker-size":"small","marker-symbol":"park2","marker-color":"#A3DDAD"},"geometry":{"type":"Point","coordinates":[15.39239432222798,47.04824188417931],"bbox":[15.39239432222798,47.04824188417931,15.39239432222798,47.04824188417931]}},{"type":"Feature","properties":{"nummer":10201,"baumbezeichnung_botanisch":"Fraxinus excelsior","baumbezeichnung_deutsch":"Esche","baumtyp":"Laub","bemerkung":null,"pflanzjahr":null,"entnahmejahr":null,"marker-size":"small","marker-symbol":"park2","marker-color":"#A3DDAD"},"geometry":{"type":"Point","coordinates":[15.39231585409173,47.04824917025871],"bbox":[15.39231585409173,47.04824917025871,15.39231585409173,47.04824917025871]}},{"type":"Feature","properties":{"nummer":13167,"baumbezeichnung_botanisch":"Fraxinus excelsior","baumbezeichnung_deutsch":"Esche","baumtyp":"Laub","bemerkung":null,"pflanzjahr":null,"entnahmejahr":null,"marker-size":"small","marker-symbol":"park2","marker-color":"#A3DDAD"},"geometry":{"type":"Point","coordinates":[15.39210058037913,47.04828110947412],"bbox":[15.39210058037913,47.04828110947412,15.39210058037913,47.04828110947412]}},{"type":"Feature","properties":{"nummer":4119,"baumbezeichnung_botanisch":"Acer pseudoplatanus","baumbezeichnung_deutsch":"Bergahorn","baumtyp":"Laub","bemerkung":null,"pflanzjahr":null,"entnahmejahr":null,"marker-size":"small","marker-symbol":"park2","marker-color":"#A3DDAD"},"geometry":{"type":"Point","coordinates":[15.39210711379117,47.04840412233146],"bbox":[15.39210711379117,47.04840412233146,15.39210711379117,47.04840412233146]}},{"type":"Feature","properties":{"nummer":17752,"baumbezeichnung_botanisch":"Acer pseudoplatanus","baumbezeichnung_deutsch":"Bergahorn","baumtyp":"Laub","bemerkung":null,"pflanzjahr":null,"entnahmejahr":null,"marker-size":"small","marker-symbol":"park2","marker-color":"#A3DDAD"},"geometry":{"type":"Point","coordinates":[15.39210917540599,47.04845173618314],"bbox":[15.39210917540599,47.04845173618314,15.39210917540599,47.04845173618314]}},{"type":"Feature","properties":{"nummer":7099,"baumbezeichnung_botanisch":"Sophora japonica","baumbezeichnung_deutsch":"Schnurbaum","baumtyp":"Laub","bemerkung":null,"pflanzjahr":null,"entnahmejahr":null,"marker-size":"small","marker-symbol":"park2","marker-color":"#A3DDAD"},"geometry":{"type":"Point","coordinates":[15.39221427608483,47.04857952754007],"bbox":[15.39221427608483,47.04857952754007,15.39221427608483,47.04857952754007]}},{"type":"Feature","properties":{"nummer":20725,"baumbezeichnung_botanisch":"Sophora japonica","baumbezeichnung_deutsch":"Schnurbaum","baumtyp":"Laub","bemerkung":null,"pflanzjahr":null,"entnahmejahr":null,"marker-size":"small","marker-symbol":"park2","marker-color":"#A3DDAD"},"geometry":{"type":"Point","coordinates":[15.39217890337005,47.04861096718745],"bbox":[15.39217890337005,47.04861096718745,15.39217890337005,47.04861096718745]}},{"type":"Feature","properties":{"nummer":57,"baumbezeichnung_botanisch":"Sophora japonica","baumbezeichnung_deutsch":"Schnurbaum","baumtyp":"Laub","bemerkung":null,"pflanzjahr":null,"entnahmejahr":null,"marker-size":"small","marker-symbol":"park2","marker-color":"#A3DDAD"},"geometry":{"type":"Point","coordinates":[15.39226027346023,47.0486037051219],"bbox":[15.39226027346023,47.0486037051219,15.39226027346023,47.0486037051219]}},{"type":"Feature","properties":{"nummer":5216,"baumbezeichnung_botanisch":"Fraxinus excelsior","baumbezeichnung_deutsch":"Esche","baumtyp":"Laub","bemerkung":null,"pflanzjahr":null,"entnahmejahr":null,"marker-size":"small","marker-symbol":"park2","marker-color":"#A3DDAD"},"geometry":{"type":"Point","coordinates":[15.39243793903047,47.04856550539471],"bbox":[15.39243793903047,47.04856550539471,15.39243793903047,47.04856550539471]}},{"type":"Feature","properties":{"nummer":25825,"baumbezeichnung_botanisch":"Tilia cordata","baumbezeichnung_deutsch":"Winterlinde","baumtyp":"Laub","bemerkung":null,"pflanzjahr":null,"entnahmejahr":null,"marker-size":"small","marker-symbol":"park2","marker-color":"#A3DDAD"},"geometry":{"type":"Point","coordinates":[15.39242647865017,47.04848354352953],"bbox":[15.39242647865017,47.04848354352953,15.39242647865017,47.04848354352953]}},{"type":"Feature","properties":{"nummer":2568,"baumbezeichnung_botanisch":"Prunus sp.","baumbezeichnung_deutsch":"Kirsche","baumtyp":"Laub","bemerkung":null,"pflanzjahr":null,"entnahmejahr":null,"marker-size":"small","marker-symbol":"park2","marker-color":"#A3DDAD"},"geometry":{"type":"Point","coordinates":[15.39259946566712,47.04847255575395],"bbox":[15.39259946566712,47.04847255575395,15.39259946566712,47.04847255575395]}},{"type":"Feature","properties":{"nummer":15456,"baumbezeichnung_botanisch":"Aesculus x carnea","baumbezeichnung_deutsch":"Rotblühende Roßkastanie","baumtyp":"Laub","bemerkung":null,"pflanzjahr":null,"entnahmejahr":null,"marker-size":"small","marker-symbol":"park2","marker-color":"#A3DDAD"},"geometry":{"type":"Point","coordinates":[15.39334496625436,47.04902649976312],"bbox":[15.39334496625436,47.04902649976312,15.39334496625436,47.04902649976312]}},{"type":"Feature","properties":{"nummer":8033,"baumbezeichnung_botanisch":"Aesculus hippocastanum","baumbezeichnung_deutsch":"Gemeine Roßkastanie","baumtyp":"Laub","bemerkung":null,"pflanzjahr":"1995","entnahmejahr":null,"marker-size":"small","marker-symbol":"park2","marker-color":"#A3DDAD"},"geometry":{"type":"Point","coordinates":[15.39348240334494,47.04900910126401],"bbox":[15.39348240334494,47.04900910126401,15.39348240334494,47.04900910126401]}}]}