{"type":"FeatureCollection","features":[{"type":"Feature","properties":{"nummer":17183,"baumbezeichnung_botanisch":"Sophora japonica","baumbezeichnung_deutsch":"Schnurbaum","baumtyp":"Laub","altersklassifizierung":"mittel","bemerkung":null,"pflanzjahr":null,"entnahmejahr":null,"baumpatenschaft":null,"objectid":1418},"geometry":{"type":"Point","coordinates":[15.392260273460234,47.0486037051219],"bbox":[15.392260273460234,47.0486037051219,15.392260273460234,47.0486037051219]}},{"type":"Feature","properties":{"nummer":17166,"baumbezeichnung_botanisch":"Aesculus hippocastanum","baumbezeichnung_deutsch":"Gemeine Roßkastanie","baumtyp":"Laub","altersklassifizierung":"alt","bemerkung":null,"pflanzjahr":null,"entnahmejahr":null,"baumpatenschaft":null,"objectid":2582},"geometry":{"type":"Point","coordinates":[15.393898410370777,47.04901603321433],"bbox":[15.393898410370777,47.04901603321433,15.393898410370777,47.04901603321433]}},{"type":"Feature","properties":{"nummer":17159,"baumbezeichnung_botanisch":"Aesculus hippocastanum","baumbezeichnung_deutsch":"Gemeine Roßkastanie","baumtyp":"Laub","altersklassifizierung":"mittel","bemerkung":null,"pflanzjahr":null,"entnahmejahr":null,"baumpatenschaft":null,"objectid":2705},"geometry":{"type":"Point","coordinates":[15.393708724441478,47.048981280193686],"bbox":[15.393708724441478,47.048981280193686,15.393708724441478,47.048981280193686]}},{"type":"Feature","properties":{"nummer":17164,"baumbezeichnung_botanisch":"Aesculus hippocastanum","baumbezeichnung_deutsch":"Gemeine Roßkastanie","baumtyp":"Laub","altersklassifizierung":"jung","bemerkung":null,"pflanzjahr":null,"entnahmejahr":null,"baumpatenschaft":null,"objectid":2645},"geometry":{"type":"Point","coordinates":[15.39442813151388,47.04895517605522],"bbox":[15.39442813151388,47.04895517605522,15.39442813151388,47.04895517605522]}},{"type":"Feature","properties":{"nummer":17162,"baumbezeichnung_botanisch":"Aesculus hippocastanum","baumbezeichnung_deutsch":"Gemeine Roßkastanie","baumtyp":"Laub","altersklassifizierung":"alt","bemerkung":null,"pflanzjahr":null,"entnahmejahr":null,"baumpatenschaft":null,"objectid":5004},"geometry":{"type":"Point","coordinates":[15.392551092620279,47.04916325330267],"bbox":[15.392551092620279,47.04916325330267,15.392551092620279,47.04916325330267]}},{"type":"Feature","properties":{"nummer":24814,"baumbezeichnung_botanisch":"Aesculus flava","baumbezeichnung_deutsch":"Gelbe Pavie","baumtyp":"Laub","altersklassifizierung":"jung","bemerkung":"Baum komplett abgestorben, Ersatzpflanzung geplant","pflanzjahr":"2005","entnahmejahr":null,"baumpatenschaft":null,"objectid":5006},"geometry":{"type":"Point","coordinates":[15.39401999138854,47.048949929877374],"bbox":[15.39401999138854,47.048949929877374,15.39401999138854,47.048949929877374]}},{"type":"Feature","properties":{"nummer":17161,"baumbezeichnung_botanisch":"Aesculus hippocastanum","baumbezeichnung_deutsch":"Gemeine Roßkastanie","baumtyp":"Laub","altersklassifizierung":"alt","bemerkung":null,"pflanzjahr":null,"entnahmejahr":null,"baumpatenschaft":null,"objectid":11126},"geometry":{"type":"Point","coordinates":[15.393045986542191,47.049062536959944],"bbox":[15.393045986542191,47.049062536959944,15.393045986542191,47.049062536959944]}},{"type":"Feature","properties":{"nummer":17156,"baumbezeichnung_botanisch":"Aesculus hippocastanum","baumbezeichnung_deutsch":"Gemeine Roßkastanie","baumtyp":"Laub","altersklassifizierung":"alt","bemerkung":null,"pflanzjahr":null,"entnahmejahr":null,"baumpatenschaft":null,"objectid":11393},"geometry":{"type":"Point","coordinates":[15.394288770647954,47.04891741969801],"bbox":[15.394288770647954,47.04891741969801,15.394288770647954,47.04891741969801]}},{"type":"Feature","properties":{"nummer":17188,"baumbezeichnung_botanisch":"Tilia cordata","baumbezeichnung_deutsch":"Winterlinde","baumtyp":"Laub","altersklassifizierung":"jung","bemerkung":null,"pflanzjahr":null,"entnahmejahr":null,"baumpatenschaft":null,"objectid":10710},"geometry":{"type":"Point","coordinates":[15.392426478650165,47.04848354352953],"bbox":[15.392426478650165,47.04848354352953,15.392426478650165,47.04848354352953]}},{"type":"Feature","properties":{"nummer":17157,"baumbezeichnung_botanisch":"Aesculus hippocastanum","baumbezeichnung_deutsch":"Gemeine Roßkastanie","baumtyp":"Laub","altersklassifizierung":"alt","bemerkung":null,"pflanzjahr":null,"entnahmejahr":null,"baumpatenschaft":null,"objectid":8367},"geometry":{"type":"Point","coordinates":[15.394155303728795,47.04893359250561],"bbox":[15.394155303728795,47.04893359250561,15.394155303728795,47.04893359250561]}},{"type":"Feature","properties":{"nummer":17179,"baumbezeichnung_botanisch":"Acer pseudoplatanus","baumbezeichnung_deutsch":"Bergahorn","baumtyp":"Laub","altersklassifizierung":"mittel","bemerkung":null,"pflanzjahr":null,"entnahmejahr":null,"baumpatenschaft":null,"objectid":6150},"geometry":{"type":"Point","coordinates":[15.39210711379117,47.04840412233146],"bbox":[15.39210711379117,47.04840412233146,15.39210711379117,47.04840412233146]}},{"type":"Feature","properties":{"nummer":17189,"baumbezeichnung_botanisch":"Prunus sp.","baumbezeichnung_deutsch":"Kirsche","baumtyp":"Laub","altersklassifizierung":"mittel","bemerkung":null,"pflanzjahr":null,"entnahmejahr":null,"baumpatenschaft":null,"objectid":7008},"geometry":{"type":"Point","coordinates":[15.392599465667123,47.048472555753946],"bbox":[15.392599465667123,47.048472555753946,15.392599465667123,47.048472555753946]}},{"type":"Feature","properties":{"nummer":29468,"baumbezeichnung_botanisch":"Prunus 'Hauszwetschke'","baumbezeichnung_deutsch":"Fruchtkirsche","baumtyp":"Laub","altersklassifizierung":"jung","bemerkung":null,"pflanzjahr":"2009","entnahmejahr":null,"baumpatenschaft":null,"objectid":8660},"geometry":{"type":"Point","coordinates":[15.392370091879918,47.04879301426187],"bbox":[15.392370091879918,47.04879301426187,15.392370091879918,47.04879301426187]}},{"type":"Feature","properties":{"nummer":19840,"baumbezeichnung_botanisch":"Aesculus x carnea","baumbezeichnung_deutsch":"Rotblühende Roßkastanie","baumtyp":"Laub","altersklassifizierung":"jung","bemerkung":null,"pflanzjahr":null,"entnahmejahr":null,"baumpatenschaft":null,"objectid":16063},"geometry":{"type":"Point","coordinates":[15.393344966254364,47.049026499763116],"bbox":[15.393344966254364,47.049026499763116,15.393344966254364,47.049026499763116]}},{"type":"Feature","properties":{"nummer":19841,"baumbezeichnung_botanisch":"Aesculus hippocastanum","baumbezeichnung_deutsch":"Gemeine Roßkastanie","baumtyp":"Laub","altersklassifizierung":"jung","bemerkung":null,"pflanzjahr":"1995","entnahmejahr":null,"baumpatenschaft":null,"objectid":15214},"geometry":{"type":"Point","coordinates":[15.393482403344942,47.049009101264005],"bbox":[15.393482403344942,47.049009101264005,15.393482403344942,47.049009101264005]}},{"type":"Feature","properties":{"nummer":17187,"baumbezeichnung_botanisch":"Fraxinus excelsior","baumbezeichnung_deutsch":"Esche","baumtyp":"Laub","altersklassifizierung":"mittel","bemerkung":null,"pflanzjahr":null,"entnahmejahr":null,"baumpatenschaft":null,"objectid":14595},"geometry":{"type":"Point","coordinates":[15.392437939030474,47.04856550539471],"bbox":[15.392437939030474,47.04856550539471,15.392437939030474,47.04856550539471]}},{"type":"Feature","properties":{"nummer":17175,"baumbezeichnung_botanisch":"Fraxinus excelsior","baumbezeichnung_deutsch":"Esche","baumtyp":"Laub","altersklassifizierung":"mittel","bemerkung":null,"pflanzjahr":null,"entnahmejahr":null,"baumpatenschaft":null,"objectid":23142},"geometry":{"type":"Point","coordinates":[15.39231585409173,47.048249170258714],"bbox":[15.39231585409173,47.048249170258714,15.39231585409173,47.048249170258714]}},{"type":"Feature","properties":{"nummer":17181,"baumbezeichnung_botanisch":"Sophora japonica","baumbezeichnung_deutsch":"Schnurbaum","baumtyp":"Laub","altersklassifizierung":"mittel","bemerkung":null,"pflanzjahr":null,"entnahmejahr":null,"baumpatenschaft":null,"objectid":23363},"geometry":{"type":"Point","coordinates":[15.39221427608483,47.04857952754007],"bbox":[15.39221427608483,47.04857952754007,15.39221427608483,47.04857952754007]}},{"type":"Feature","properties":{"nummer":17163,"baumbezeichnung_botanisch":"Platanus x acerifolia","baumbezeichnung_deutsch":"Platane","baumtyp":"Laub","altersklassifizierung":"alt","bemerkung":null,"pflanzjahr":null,"entnahmejahr":null,"baumpatenschaft":null,"objectid":20953,"Naturdenkmal":true,"Naturdenkmal_Eigentum":"öffentlich"},"geometry":{"type":"Point","coordinates":[15.394565241997812,47.048932376490676],"bbox":[15.394565241997812,47.048932376490676,15.394565241997812,47.048932376490676]}},{"type":"Feature","properties":{"nummer":17177,"baumbezeichnung_botanisch":"Fraxinus excelsior","baumbezeichnung_deutsch":"Esche","baumtyp":"Laub","altersklassifizierung":"mittel","bemerkung":null,"pflanzjahr":null,"entnahmejahr":null,"baumpatenschaft":null,"objectid":21670},"geometry":{"type":"Point","coordinates":[15.392100580379129,47.04828110947412],"bbox":[15.392100580379129,47.04828110947412,15.392100580379129,47.04828110947412]}},{"type":"Feature","properties":{"nummer":17173,"baumbezeichnung_botanisch":"Cornus sanguinea","baumbezeichnung_deutsch":"Echter Hartriegel","baumtyp":"Laub","altersklassifizierung":"mittel","bemerkung":null,"pflanzjahr":null,"entnahmejahr":null,"baumpatenschaft":null,"objectid":18930},"geometry":{"type":"Point","coordinates":[15.39239432222798,47.04824188417931],"bbox":[15.39239432222798,47.04824188417931,15.39239432222798,47.04824188417931]}},{"type":"Feature","properties":{"nummer":17171,"baumbezeichnung_botanisch":"Prunus avium","baumbezeichnung_deutsch":"Vogelkirsche","baumtyp":"Laub","altersklassifizierung":"jung","bemerkung":null,"pflanzjahr":null,"entnahmejahr":null,"baumpatenschaft":null,"objectid":20515},"geometry":{"type":"Point","coordinates":[15.392478698057193,47.04822869644908],"bbox":[15.392478698057193,47.04822869644908,15.392478698057193,47.04822869644908]}},{"type":"Feature","properties":{"nummer":17182,"baumbezeichnung_botanisch":"Sophora japonica","baumbezeichnung_deutsch":"Schnurbaum","baumtyp":"Laub","altersklassifizierung":"mittel","bemerkung":null,"pflanzjahr":null,"entnahmejahr":null,"baumpatenschaft":null,"objectid":28177},"geometry":{"type":"Point","coordinates":[15.39217890337005,47.04861096718745],"bbox":[15.39217890337005,47.04861096718745,15.39217890337005,47.04861096718745]}},{"type":"Feature","properties":{"nummer":17180,"baumbezeichnung_botanisch":"Acer pseudoplatanus","baumbezeichnung_deutsch":"Bergahorn","baumtyp":"Laub","altersklassifizierung":"mittel","bemerkung":null,"pflanzjahr":null,"entnahmejahr":null,"baumpatenschaft":null,"objectid":25432},"geometry":{"type":"Point","coordinates":[15.392109175405986,47.04845173618314],"bbox":[15.392109175405986,47.04845173618314,15.392109175405986,47.04845173618314]}},{"type":"Feature","properties":{"nummer":17169,"baumbezeichnung_botanisch":"Crataegus sp.","baumbezeichnung_deutsch":"Weißdorn","baumtyp":"Laub","altersklassifizierung":"mittel","bemerkung":null,"pflanzjahr":null,"entnahmejahr":null,"baumpatenschaft":null,"objectid":25749},"geometry":{"type":"Point","coordinates":[15.392585756368792,47.04824544427107],"bbox":[15.392585756368792,47.04824544427107,15.392585756368792,47.04824544427107]}}]}