{"type":"FeatureCollection","features":[{"type":"Feature","properties":{"nummer":18582,"baumbezeichnung_botanisch":"Prunus serrulata 'Hokusai'","baumbezeichnung_deutsch":"Japanische Kirsche","baumtyp":"Laub","bemerkung":null,"pflanzjahr":null,"entnahmejahr":null,"marker-size":"small","marker-symbol":"park2","marker-color":"#A3DDAD"},"geometry":{"type":"Point","coordinates":[15.423521625461,47.09427063530364],"bbox":[15.423521625461,47.09427063530364,15.423521625461,47.09427063530364]}},{"type":"Feature","properties":{"nummer":6016,"baumbezeichnung_botanisch":"Prunus serrulata 'Hokusai'","baumbezeichnung_deutsch":"Japanische Kirsche","baumtyp":"Laub","bemerkung":null,"pflanzjahr":null,"entnahmejahr":null,"marker-size":"small","marker-symbol":"park2","marker-color":"#A3DDAD"},"geometry":{"type":"Point","coordinates":[15.42350226312416,47.09423642661643],"bbox":[15.42350226312416,47.09423642661643,15.42350226312416,47.09423642661643]}},{"type":"Feature","properties":{"nummer":687,"baumbezeichnung_botanisch":"Gleditsia triacanthos","baumbezeichnung_deutsch":"Christusdorn","baumtyp":"Laub","bemerkung":"Entfernung nach Sturz beim Gewittersturm vom 29.07.2013, auf Grund des geringen Plaztangebotes drzt keine Ersatzpflanzung geplant","pflanzjahr":null,"entnahmejahr":"2013","marker-size":"small","marker-symbol":"park2","marker-color":"#B3B3B3"},"geometry":{"type":"Point","coordinates":[15.42356244324138,47.09421647299616],"bbox":[15.42356244324138,47.09421647299616,15.42356244324138,47.09421647299616]}},{"type":"Feature","properties":{"nummer":5201,"baumbezeichnung_botanisch":"Betula pendula","baumbezeichnung_deutsch":"Sandbirke, Weißbirke","baumtyp":"Laub","bemerkung":null,"pflanzjahr":null,"entnahmejahr":null,"marker-size":"small","marker-symbol":"park2","marker-color":"#A3DDAD"},"geometry":{"type":"Point","coordinates":[15.42469975670851,47.09353781898236],"bbox":[15.42469975670851,47.09353781898236,15.42469975670851,47.09353781898236]}},{"type":"Feature","properties":{"nummer":8380,"baumbezeichnung_botanisch":"Prunus sp.","baumbezeichnung_deutsch":"Kirsche","baumtyp":"Laub","bemerkung":null,"pflanzjahr":null,"entnahmejahr":null,"marker-size":"small","marker-symbol":"park2","marker-color":"#A3DDAD"},"geometry":{"type":"Point","coordinates":[15.4246662313055,47.09356972929264],"bbox":[15.4246662313055,47.09356972929264,15.4246662313055,47.09356972929264]}},{"type":"Feature","properties":{"nummer":9733,"baumbezeichnung_botanisch":"Betula pendula","baumbezeichnung_deutsch":"Sandbirke, Weißbirke","baumtyp":"Laub","bemerkung":null,"pflanzjahr":null,"entnahmejahr":null,"marker-size":"small","marker-symbol":"park2","marker-color":"#A3DDAD"},"geometry":{"type":"Point","coordinates":[15.424643553487,47.09351806468104],"bbox":[15.424643553487,47.09351806468104,15.424643553487,47.09351806468104]}},{"type":"Feature","properties":{"nummer":20279,"baumbezeichnung_botanisch":"Prunus sp.","baumbezeichnung_deutsch":"Kirsche","baumtyp":"Laub","bemerkung":null,"pflanzjahr":null,"entnahmejahr":null,"marker-size":"small","marker-symbol":"park2","marker-color":"#A3DDAD"},"geometry":{"type":"Point","coordinates":[15.4247966574233,47.0936576478284],"bbox":[15.4247966574233,47.0936576478284,15.4247966574233,47.0936576478284]}},{"type":"Feature","properties":{"nummer":7529,"baumbezeichnung_botanisch":"Carpinus betulus","baumbezeichnung_deutsch":"Hain - oder Weißbuche","baumtyp":"Laub","bemerkung":null,"pflanzjahr":null,"entnahmejahr":null,"marker-size":"small","marker-symbol":"park2","marker-color":"#A3DDAD"},"geometry":{"type":"Point","coordinates":[15.42476800741666,47.09367994436639],"bbox":[15.42476800741666,47.09367994436639,15.42476800741666,47.09367994436639]}},{"type":"Feature","properties":{"nummer":13490,"baumbezeichnung_botanisch":"Carpinus betulus","baumbezeichnung_deutsch":"Hain - oder Weißbuche","baumtyp":"Laub","bemerkung":null,"pflanzjahr":null,"entnahmejahr":null,"marker-size":"small","marker-symbol":"park2","marker-color":"#A3DDAD"},"geometry":{"type":"Point","coordinates":[15.42478646741503,47.09370261579485],"bbox":[15.42478646741503,47.09370261579485,15.42478646741503,47.09370261579485]}}]}