{"type":"FeatureCollection","features":[{"type":"Feature","properties":{"nummer":26667,"baumbezeichnung_botanisch":"Salix alba 'Tristis'","baumbezeichnung_deutsch":"Trauerweide","baumtyp":"Laub","bemerkung":null,"pflanzjahr":null,"entnahmejahr":null,"marker-size":"small","marker-symbol":"park2","marker-color":"#A3DDAD"},"geometry":{"type":"Point","coordinates":[15.42477167731652,47.0848419596845],"bbox":[15.42477167731652,47.0848419596845,15.42477167731652,47.0848419596845]}},{"type":"Feature","properties":{"nummer":20093,"baumbezeichnung_botanisch":"Salix alba 'Tristis'","baumbezeichnung_deutsch":"Trauerweide","baumtyp":"Laub","bemerkung":null,"pflanzjahr":null,"entnahmejahr":null,"marker-size":"small","marker-symbol":"park2","marker-color":"#A3DDAD"},"geometry":{"type":"Point","coordinates":[15.42467250660723,47.08494126850562],"bbox":[15.42467250660723,47.08494126850562,15.42467250660723,47.08494126850562]}},{"type":"Feature","properties":{"nummer":17768,"baumbezeichnung_botanisch":"Salix alba 'Tristis'","baumbezeichnung_deutsch":"Trauerweide","baumtyp":"Laub","bemerkung":null,"pflanzjahr":null,"entnahmejahr":null,"marker-size":"small","marker-symbol":"park2","marker-color":"#A3DDAD"},"geometry":{"type":"Point","coordinates":[15.42460614332229,47.08500209299903],"bbox":[15.42460614332229,47.08500209299903,15.42460614332229,47.08500209299903]}},{"type":"Feature","properties":{"nummer":20566,"baumbezeichnung_botanisch":"Salix sp.","baumbezeichnung_deutsch":"Weide","baumtyp":"Laub","bemerkung":null,"pflanzjahr":null,"entnahmejahr":null,"marker-size":"small","marker-symbol":"park2","marker-color":"#A3DDAD"},"geometry":{"type":"Point","coordinates":[15.42456455931801,47.08504638206156],"bbox":[15.42456455931801,47.08504638206156,15.42456455931801,47.08504638206156]}},{"type":"Feature","properties":{"nummer":44068,"baumbezeichnung_botanisch":"Prunus avium","baumbezeichnung_deutsch":"Vogelkirsche","baumtyp":"Laub","bemerkung":null,"pflanzjahr":null,"entnahmejahr":null,"marker-size":"small","marker-symbol":"park2","marker-color":"#A3DDAD"},"geometry":{"type":"Point","coordinates":[15.42440640718421,47.08467429581441],"bbox":[15.42440640718421,47.08467429581441,15.42440640718421,47.08467429581441]}},{"type":"Feature","properties":{"nummer":44069,"baumbezeichnung_botanisch":"Acer platanoides","baumbezeichnung_deutsch":"Spitzahorn","baumtyp":"Laub","bemerkung":null,"pflanzjahr":null,"entnahmejahr":null,"marker-size":"small","marker-symbol":"park2","marker-color":"#A3DDAD"},"geometry":{"type":"Point","coordinates":[15.42446034537009,47.08458930800176],"bbox":[15.42446034537009,47.08458930800176,15.42446034537009,47.08458930800176]}},{"type":"Feature","properties":{"nummer":44070,"baumbezeichnung_botanisch":"Acer platanoides","baumbezeichnung_deutsch":"Spitzahorn","baumtyp":"Laub","bemerkung":null,"pflanzjahr":null,"entnahmejahr":null,"marker-size":"small","marker-symbol":"park2","marker-color":"#A3DDAD"},"geometry":{"type":"Point","coordinates":[15.4245468012087,47.08451646779644],"bbox":[15.4245468012087,47.08451646779644,15.4245468012087,47.08451646779644]}},{"type":"Feature","properties":{"nummer":44071,"baumbezeichnung_botanisch":"Acer platanoides","baumbezeichnung_deutsch":"Spitzahorn","baumtyp":"Laub","bemerkung":null,"pflanzjahr":null,"entnahmejahr":null,"marker-size":"small","marker-symbol":"park2","marker-color":"#A3DDAD"},"geometry":{"type":"Point","coordinates":[15.42464041627041,47.08443686624137],"bbox":[15.42464041627041,47.08443686624137,15.42464041627041,47.08443686624137]}},{"type":"Feature","properties":{"nummer":44072,"baumbezeichnung_botanisch":"Acer pseudoplatanus","baumbezeichnung_deutsch":"Bergahorn","baumtyp":"Laub","bemerkung":null,"pflanzjahr":null,"entnahmejahr":null,"marker-size":"small","marker-symbol":"park2","marker-color":"#A3DDAD"},"geometry":{"type":"Point","coordinates":[15.42472527333396,47.08435272885525],"bbox":[15.42472527333396,47.08435272885525,15.42472527333396,47.08435272885525]}},{"type":"Feature","properties":{"nummer":44074,"baumbezeichnung_botanisch":"Acer pseudoplatanus","baumbezeichnung_deutsch":"Bergahorn","baumtyp":"Laub","bemerkung":null,"pflanzjahr":null,"entnahmejahr":null,"marker-size":"small","marker-symbol":"park2","marker-color":"#A3DDAD"},"geometry":{"type":"Point","coordinates":[15.42479604528504,47.08428831525547],"bbox":[15.42479604528504,47.08428831525547,15.42479604528504,47.08428831525547]}}]}