{"type":"FeatureCollection","features":[{"type":"Feature","properties":{"nummer":21962,"baumbezeichnung_botanisch":"Pinus nigra","baumbezeichnung_deutsch":"Schwarzkiefer","baumtyp":"Nadel","bemerkung":null,"pflanzjahr":null,"entnahmejahr":null,"marker-size":"small","marker-symbol":"park","marker-color":"#3BB451"},"geometry":{"type":"Point","coordinates":[15.46196065192641,47.06715717002744],"bbox":[15.46196065192641,47.06715717002744,15.46196065192641,47.06715717002744]}},{"type":"Feature","properties":{"nummer":26254,"baumbezeichnung_botanisch":"Picea abies","baumbezeichnung_deutsch":"Rotfichte","baumtyp":"Nadel","bemerkung":null,"pflanzjahr":null,"entnahmejahr":null,"marker-size":"small","marker-symbol":"park","marker-color":"#3BB451"},"geometry":{"type":"Point","coordinates":[15.46192483338906,47.06715112264583],"bbox":[15.46192483338906,47.06715112264583,15.46192483338906,47.06715112264583]}},{"type":"Feature","properties":{"nummer":14954,"baumbezeichnung_botanisch":"Abies alba","baumbezeichnung_deutsch":"Weißtanne","baumtyp":"Nadel","bemerkung":null,"pflanzjahr":null,"entnahmejahr":null,"marker-size":"small","marker-symbol":"park","marker-color":"#3BB451"},"geometry":{"type":"Point","coordinates":[15.46189720596999,47.06716101592463],"bbox":[15.46189720596999,47.06716101592463,15.46189720596999,47.06716101592463]}},{"type":"Feature","properties":{"nummer":7765,"baumbezeichnung_botanisch":"Pinus nigra","baumbezeichnung_deutsch":"Schwarzkiefer","baumtyp":"Nadel","bemerkung":null,"pflanzjahr":null,"entnahmejahr":null,"marker-size":"small","marker-symbol":"park","marker-color":"#3BB451"},"geometry":{"type":"Point","coordinates":[15.46192824287825,47.06707175078303],"bbox":[15.46192824287825,47.06707175078303,15.46192824287825,47.06707175078303]}},{"type":"Feature","properties":{"nummer":19854,"baumbezeichnung_botanisch":"Cedrus atlantica 'Glauca'","baumbezeichnung_deutsch":"Blaue Atlaszeder","baumtyp":"Nadel","bemerkung":null,"pflanzjahr":null,"entnahmejahr":null,"marker-size":"small","marker-symbol":"park","marker-color":"#3BB451"},"geometry":{"type":"Point","coordinates":[15.46190680116832,47.06696187484003],"bbox":[15.46190680116832,47.06696187484003,15.46190680116832,47.06696187484003]}},{"type":"Feature","properties":{"nummer":19951,"baumbezeichnung_botanisch":"Prunus avium","baumbezeichnung_deutsch":"Vogelkirsche","baumtyp":"Laub","bemerkung":null,"pflanzjahr":null,"entnahmejahr":null,"marker-size":"small","marker-symbol":"park2","marker-color":"#A3DDAD"},"geometry":{"type":"Point","coordinates":[15.46189663860182,47.06667885388114],"bbox":[15.46189663860182,47.06667885388114,15.46189663860182,47.06667885388114]}},{"type":"Feature","properties":{"nummer":21542,"baumbezeichnung_botanisch":"Prunus cerasifera 'Nigra'","baumbezeichnung_deutsch":"Echte Blutpflaume","baumtyp":"Laub","bemerkung":null,"pflanzjahr":null,"entnahmejahr":null,"marker-size":"small","marker-symbol":"park2","marker-color":"#A3DDAD"},"geometry":{"type":"Point","coordinates":[15.46216303467765,47.06700088595557],"bbox":[15.46216303467765,47.06700088595557,15.46216303467765,47.06700088595557]}},{"type":"Feature","properties":{"nummer":2210,"baumbezeichnung_botanisch":"Abies sp.","baumbezeichnung_deutsch":"Tanne","baumtyp":"Nadel","bemerkung":null,"pflanzjahr":null,"entnahmejahr":"2011","marker-size":"small","marker-symbol":"park","marker-color":"#B3B3B3"},"geometry":{"type":"Point","coordinates":[15.46224055644225,47.06689731438123],"bbox":[15.46224055644225,47.06689731438123,15.46224055644225,47.06689731438123]}},{"type":"Feature","properties":{"nummer":1089,"baumbezeichnung_botanisch":"Larix decidua","baumbezeichnung_deutsch":"Europäische Lärche","baumtyp":"Nadel","bemerkung":null,"pflanzjahr":null,"entnahmejahr":null,"marker-size":"small","marker-symbol":"park","marker-color":"#3BB451"},"geometry":{"type":"Point","coordinates":[15.46296580862186,47.06730479506521],"bbox":[15.46296580862186,47.06730479506521,15.46296580862186,47.06730479506521]}},{"type":"Feature","properties":{"nummer":1116,"baumbezeichnung_botanisch":"Betula pendula","baumbezeichnung_deutsch":"Sandbirke, Weißbirke","baumtyp":"Laub","bemerkung":null,"pflanzjahr":null,"entnahmejahr":null,"marker-size":"small","marker-symbol":"park2","marker-color":"#A3DDAD"},"geometry":{"type":"Point","coordinates":[15.46268739249065,47.06724526965866],"bbox":[15.46268739249065,47.06724526965866,15.46268739249065,47.06724526965866]}},{"type":"Feature","properties":{"nummer":1118,"baumbezeichnung_botanisch":"Betula pendula","baumbezeichnung_deutsch":"Sandbirke, Weißbirke","baumtyp":"Laub","bemerkung":null,"pflanzjahr":null,"entnahmejahr":null,"marker-size":"small","marker-symbol":"park2","marker-color":"#A3DDAD"},"geometry":{"type":"Point","coordinates":[15.46264365287171,47.06729165834812],"bbox":[15.46264365287171,47.06729165834812,15.46264365287171,47.06729165834812]}},{"type":"Feature","properties":{"nummer":1119,"baumbezeichnung_botanisch":"Fraxinus excelsior","baumbezeichnung_deutsch":"Esche","baumtyp":"Laub","bemerkung":null,"pflanzjahr":null,"entnahmejahr":null,"marker-size":"small","marker-symbol":"park2","marker-color":"#A3DDAD"},"geometry":{"type":"Point","coordinates":[15.46258713083253,47.0672832170726],"bbox":[15.46258713083253,47.0672832170726,15.46258713083253,47.0672832170726]}},{"type":"Feature","properties":{"nummer":1121,"baumbezeichnung_botanisch":"Acer pseudoplatanus","baumbezeichnung_deutsch":"Bergahorn","baumtyp":"Laub","bemerkung":null,"pflanzjahr":null,"entnahmejahr":null,"marker-size":"small","marker-symbol":"park2","marker-color":"#A3DDAD"},"geometry":{"type":"Point","coordinates":[15.46261094382311,47.06726070589865],"bbox":[15.46261094382311,47.06726070589865,15.46261094382311,47.06726070589865]}},{"type":"Feature","properties":{"nummer":1122,"baumbezeichnung_botanisch":"Fraxinus excelsior","baumbezeichnung_deutsch":"Esche","baumtyp":"Laub","bemerkung":null,"pflanzjahr":null,"entnahmejahr":null,"marker-size":"small","marker-symbol":"park2","marker-color":"#A3DDAD"},"geometry":{"type":"Point","coordinates":[15.46263087180953,47.06723682841496],"bbox":[15.46263087180953,47.06723682841496,15.46263087180953,47.06723682841496]}},{"type":"Feature","properties":{"nummer":1123,"baumbezeichnung_botanisch":"Prunus sp.","baumbezeichnung_deutsch":"Kirsche","baumtyp":"Laub","bemerkung":null,"pflanzjahr":null,"entnahmejahr":null,"marker-size":"small","marker-symbol":"park2","marker-color":"#A3DDAD"},"geometry":{"type":"Point","coordinates":[15.46265275317273,47.06721296672682],"bbox":[15.46265275317273,47.06721296672682,15.46265275317273,47.06721296672682]}},{"type":"Feature","properties":{"nummer":6556,"baumbezeichnung_botanisch":"Chamaecyparis lawsoniana","baumbezeichnung_deutsch":"Scheinzypresse","baumtyp":"Nadel","bemerkung":null,"pflanzjahr":null,"entnahmejahr":"2011","marker-size":"small","marker-symbol":"park","marker-color":"#B3B3B3"},"geometry":{"type":"Point","coordinates":[15.46226912547971,47.06690526817413],"bbox":[15.46226912547971,47.06690526817413,15.46226912547971,47.06690526817413]}},{"type":"Feature","properties":{"nummer":438,"baumbezeichnung_botanisch":"Prunus 'Wangenheims Frühzwetschke'","baumbezeichnung_deutsch":"Fruchtzwetschke","baumtyp":"Laub","bemerkung":null,"pflanzjahr":"2011","entnahmejahr":null,"marker-size":"small","marker-symbol":"park2","marker-color":"#A3DDAD"},"geometry":{"type":"Point","coordinates":[15.46199527819445,47.06710690890697],"bbox":[15.46199527819445,47.06710690890697,15.46199527819445,47.06710690890697]}}]}