{"type":"FeatureCollection","features":[{"type":"Feature","properties":{"nummer":3073,"baumbezeichnung_botanisch":"Acer platanoides","baumbezeichnung_deutsch":"Spitzahorn","baumtyp":"Laub","bemerkung":null,"pflanzjahr":null,"entnahmejahr":null,"marker-size":"small","marker-symbol":"park2","marker-color":"#A3DDAD"},"geometry":{"type":"Point","coordinates":[15.41879850918702,47.08525236400619],"bbox":[15.41879850918702,47.08525236400619,15.41879850918702,47.08525236400619]}},{"type":"Feature","properties":{"nummer":7620,"baumbezeichnung_botanisch":"Aesculus hippocastanum","baumbezeichnung_deutsch":"Gemeine Roßkastanie","baumtyp":"Laub","bemerkung":null,"pflanzjahr":null,"entnahmejahr":null,"marker-size":"small","marker-symbol":"park2","marker-color":"#A3DDAD"},"geometry":{"type":"Point","coordinates":[15.41911854725983,47.08522170832014],"bbox":[15.41911854725983,47.08522170832014,15.41911854725983,47.08522170832014]}},{"type":"Feature","properties":{"nummer":5104,"baumbezeichnung_botanisch":"Aesculus hippocastanum","baumbezeichnung_deutsch":"Gemeine Roßkastanie","baumtyp":"Laub","bemerkung":null,"pflanzjahr":null,"entnahmejahr":null,"marker-size":"small","marker-symbol":"park2","marker-color":"#A3DDAD"},"geometry":{"type":"Point","coordinates":[15.41927255314812,47.08529278814557],"bbox":[15.41927255314812,47.08529278814557,15.41927255314812,47.08529278814557]}},{"type":"Feature","properties":{"nummer":9770,"baumbezeichnung_botanisch":"Tilia cordata","baumbezeichnung_deutsch":"Winterlinde","baumtyp":"Laub","bemerkung":null,"pflanzjahr":null,"entnahmejahr":null,"marker-size":"small","marker-symbol":"park2","marker-color":"#A3DDAD"},"geometry":{"type":"Point","coordinates":[15.4189519672193,47.08859644380927],"bbox":[15.4189519672193,47.08859644380927,15.4189519672193,47.08859644380927]}},{"type":"Feature","properties":{"nummer":8769,"baumbezeichnung_botanisch":"Robinia pseudoacacia","baumbezeichnung_deutsch":"Scheinakazie","baumtyp":"Laub","bemerkung":null,"pflanzjahr":null,"entnahmejahr":null,"marker-size":"small","marker-symbol":"park2","marker-color":"#A3DDAD"},"geometry":{"type":"Point","coordinates":[15.41908290855657,47.08859034313458],"bbox":[15.41908290855657,47.08859034313458,15.41908290855657,47.08859034313458]}},{"type":"Feature","properties":{"nummer":50,"baumbezeichnung_botanisch":"Acer pseudoplatanus","baumbezeichnung_deutsch":"Bergahorn","baumtyp":"Laub","bemerkung":null,"pflanzjahr":null,"entnahmejahr":null,"marker-size":"small","marker-symbol":"park2","marker-color":"#A3DDAD"},"geometry":{"type":"Point","coordinates":[15.41904541950333,47.08864008519146],"bbox":[15.41904541950333,47.08864008519146,15.41904541950333,47.08864008519146]}},{"type":"Feature","properties":{"nummer":13022,"baumbezeichnung_botanisch":"Sophora japonica","baumbezeichnung_deutsch":"Schnurbaum","baumtyp":"Laub","bemerkung":null,"pflanzjahr":null,"entnahmejahr":null,"marker-size":"small","marker-symbol":"park2","marker-color":"#A3DDAD"},"geometry":{"type":"Point","coordinates":[15.41902350688964,47.08869710035568],"bbox":[15.41902350688964,47.08869710035568,15.41902350688964,47.08869710035568]}},{"type":"Feature","properties":{"nummer":20724,"baumbezeichnung_botanisch":"Acer pseudoplatanus","baumbezeichnung_deutsch":"Bergahorn","baumtyp":"Laub","bemerkung":null,"pflanzjahr":null,"entnahmejahr":null,"marker-size":"small","marker-symbol":"park2","marker-color":"#A3DDAD"},"geometry":{"type":"Point","coordinates":[15.41899125209766,47.08874688431071],"bbox":[15.41899125209766,47.08874688431071,15.41899125209766,47.08874688431071]}},{"type":"Feature","properties":{"nummer":51,"baumbezeichnung_botanisch":"Sophora japonica","baumbezeichnung_deutsch":"Schnurbaum","baumtyp":"Laub","bemerkung":null,"pflanzjahr":null,"entnahmejahr":null,"marker-size":"small","marker-symbol":"park2","marker-color":"#A3DDAD"},"geometry":{"type":"Point","coordinates":[15.41897481657687,47.08878964566736],"bbox":[15.41897481657687,47.08878964566736,15.41897481657687,47.08878964566736]}},{"type":"Feature","properties":{"nummer":10809,"baumbezeichnung_botanisch":"Sophora japonica","baumbezeichnung_deutsch":"Schnurbaum","baumtyp":"Laub","bemerkung":null,"pflanzjahr":null,"entnahmejahr":null,"marker-size":"small","marker-symbol":"park2","marker-color":"#A3DDAD"},"geometry":{"type":"Point","coordinates":[15.41854287617651,47.08834295724049],"bbox":[15.41854287617651,47.08834295724049,15.41854287617651,47.08834295724049]}},{"type":"Feature","properties":{"nummer":7057,"baumbezeichnung_botanisch":"Sophora japonica","baumbezeichnung_deutsch":"Schnurbaum","baumtyp":"Laub","bemerkung":null,"pflanzjahr":null,"entnahmejahr":null,"marker-size":"small","marker-symbol":"park2","marker-color":"#A3DDAD"},"geometry":{"type":"Point","coordinates":[15.41854158706865,47.08841800985825],"bbox":[15.41854158706865,47.08841800985825,15.41854158706865,47.08841800985825]}},{"type":"Feature","properties":{"nummer":83,"baumbezeichnung_botanisch":"Sophora japonica","baumbezeichnung_deutsch":"Schnurbaum","baumtyp":"Laub","bemerkung":null,"pflanzjahr":null,"entnahmejahr":null,"marker-size":"small","marker-symbol":"park2","marker-color":"#A3DDAD"},"geometry":{"type":"Point","coordinates":[15.41863134147764,47.08837226134452],"bbox":[15.41863134147764,47.08837226134452,15.41863134147764,47.08837226134452]}},{"type":"Feature","properties":{"nummer":18134,"baumbezeichnung_botanisch":"Picea abies","baumbezeichnung_deutsch":"Rotfichte","baumtyp":"Nadel","bemerkung":null,"pflanzjahr":null,"entnahmejahr":null,"marker-size":"small","marker-symbol":"park","marker-color":"#3BB451"},"geometry":{"type":"Point","coordinates":[15.41882932597651,47.08842388870701],"bbox":[15.41882932597651,47.08842388870701,15.41882932597651,47.08842388870701]}},{"type":"Feature","properties":{"nummer":8809,"baumbezeichnung_botanisch":"Acer platanoides","baumbezeichnung_deutsch":"Spitzahorn","baumtyp":"Laub","bemerkung":"Entfernung auf Grund Kronenbruches beim Gewittersturm 29.07.2013, auf Grund des dichten Bestandes drzt kein Ersatz geplant","pflanzjahr":"2006","entnahmejahr":"2013","marker-size":"small","marker-symbol":"park2","marker-color":"#B3B3B3"},"geometry":{"type":"Point","coordinates":[15.41904333243572,47.08518596226938],"bbox":[15.41904333243572,47.08518596226938,15.41904333243572,47.08518596226938]}},{"type":"Feature","properties":{"nummer":1184,"baumbezeichnung_botanisch":"Acer platanoides","baumbezeichnung_deutsch":"Spitzahorn","baumtyp":"Laub","bemerkung":null,"pflanzjahr":"2006","entnahmejahr":null,"marker-size":"small","marker-symbol":"park2","marker-color":"#A3DDAD"},"geometry":{"type":"Point","coordinates":[15.41899217947816,47.08515579871882],"bbox":[15.41899217947816,47.08515579871882,15.41899217947816,47.08515579871882]}},{"type":"Feature","properties":{"nummer":29219,"baumbezeichnung_botanisch":"Acer platanoides","baumbezeichnung_deutsch":"Spitzahorn","baumtyp":"Laub","bemerkung":null,"pflanzjahr":"2009","entnahmejahr":null,"marker-size":"small","marker-symbol":"park2","marker-color":"#A3DDAD"},"geometry":{"type":"Point","coordinates":[15.41915363025734,47.08541966496302],"bbox":[15.41915363025734,47.08541966496302,15.41915363025734,47.08541966496302]}},{"type":"Feature","properties":{"nummer":22176,"baumbezeichnung_botanisch":"Acer platanoides","baumbezeichnung_deutsch":"Spitzahorn","baumtyp":"Laub","bemerkung":null,"pflanzjahr":"2007","entnahmejahr":null,"marker-size":"small","marker-symbol":"park2","marker-color":"#A3DDAD"},"geometry":{"type":"Point","coordinates":[15.41868911525843,47.08520004486366],"bbox":[15.41868911525843,47.08520004486366,15.41868911525843,47.08520004486366]}},{"type":"Feature","properties":{"nummer":58466,"baumbezeichnung_botanisch":"Tilia platyphyllos","baumbezeichnung_deutsch":"Sommerlinde","baumtyp":"Laub","bemerkung":null,"pflanzjahr":"1995","entnahmejahr":null,"marker-size":"small","marker-symbol":"park2","marker-color":"#A3DDAD"},"geometry":{"type":"Point","coordinates":[15.41843605484927,47.08797016869796],"bbox":[15.41843605484927,47.08797016869796,15.41843605484927,47.08797016869796]}},{"type":"Feature","properties":{"nummer":58467,"baumbezeichnung_botanisch":"Tilia platyphyllos","baumbezeichnung_deutsch":"Sommerlinde","baumtyp":"Laub","bemerkung":null,"pflanzjahr":"1995","entnahmejahr":null,"marker-size":"small","marker-symbol":"park2","marker-color":"#A3DDAD"},"geometry":{"type":"Point","coordinates":[15.41847570901283,47.08789313785223],"bbox":[15.41847570901283,47.08789313785223,15.41847570901283,47.08789313785223]}},{"type":"Feature","properties":{"nummer":15646,"baumbezeichnung_botanisch":"Fagus sylvatica 'Purpurea'","baumbezeichnung_deutsch":"Purpurbuche","baumtyp":"Laub","bemerkung":null,"pflanzjahr":"1998","entnahmejahr":null,"marker-size":"small","marker-symbol":"park2","marker-color":"#A3DDAD"},"geometry":{"type":"Point","coordinates":[15.41569190792849,47.08881100353574],"bbox":[15.41569190792849,47.08881100353574,15.41569190792849,47.08881100353574]}},{"type":"Feature","properties":{"nummer":8234,"baumbezeichnung_botanisch":"Carpinus betulus 'Fastigiata'","baumbezeichnung_deutsch":"Säulenhainbuche","baumtyp":"Laub","bemerkung":null,"pflanzjahr":"1998","entnahmejahr":null,"marker-size":"small","marker-symbol":"park2","marker-color":"#A3DDAD"},"geometry":{"type":"Point","coordinates":[15.41561497585391,47.08871990739321],"bbox":[15.41561497585391,47.08871990739321,15.41561497585391,47.08871990739321]}},{"type":"Feature","properties":{"nummer":8563,"baumbezeichnung_botanisch":"Quercus robur","baumbezeichnung_deutsch":"Stieleiche","baumtyp":"Laub","bemerkung":null,"pflanzjahr":"1998","entnahmejahr":null,"marker-size":"small","marker-symbol":"park2","marker-color":"#A3DDAD"},"geometry":{"type":"Point","coordinates":[15.41555575937824,47.08873953807722],"bbox":[15.41555575937824,47.08873953807722,15.41555575937824,47.08873953807722]}},{"type":"Feature","properties":{"nummer":20861,"baumbezeichnung_botanisch":"Betula pendula","baumbezeichnung_deutsch":"Sandbirke, Weißbirke","baumtyp":"Laub","bemerkung":null,"pflanzjahr":"1998","entnahmejahr":null,"marker-size":"small","marker-symbol":"park2","marker-color":"#A3DDAD"},"geometry":{"type":"Point","coordinates":[15.41554202539133,47.08868246010896],"bbox":[15.41554202539133,47.08868246010896,15.41554202539133,47.08868246010896]}},{"type":"Feature","properties":{"nummer":373,"baumbezeichnung_botanisch":"Fagus sylvatica","baumbezeichnung_deutsch":"Rotbuche","baumtyp":"Laub","bemerkung":null,"pflanzjahr":"1998","entnahmejahr":null,"marker-size":"small","marker-symbol":"park2","marker-color":"#A3DDAD"},"geometry":{"type":"Point","coordinates":[15.41534221911926,47.08860377953526],"bbox":[15.41534221911926,47.08860377953526,15.41534221911926,47.08860377953526]}},{"type":"Feature","properties":{"nummer":11475,"baumbezeichnung_botanisch":"Prunus sp.","baumbezeichnung_deutsch":"Kirsche","baumtyp":"Laub","bemerkung":null,"pflanzjahr":null,"entnahmejahr":null,"marker-size":"small","marker-symbol":"park2","marker-color":"#A3DDAD"},"geometry":{"type":"Point","coordinates":[15.41548211735644,47.08874229674995],"bbox":[15.41548211735644,47.08874229674995,15.41548211735644,47.08874229674995]}},{"type":"Feature","properties":{"nummer":5219,"baumbezeichnung_botanisch":"Populus nigra 'Italica'","baumbezeichnung_deutsch":"Säulenpappel","baumtyp":"Laub","bemerkung":null,"pflanzjahr":null,"entnahmejahr":"1998","marker-size":"small","marker-symbol":"park2","marker-color":"#B3B3B3"},"geometry":{"type":"Point","coordinates":[15.41564342811283,47.08877710365378],"bbox":[15.41564342811283,47.08877710365378,15.41564342811283,47.08877710365378]}},{"type":"Feature","properties":{"nummer":11483,"baumbezeichnung_botanisch":"Sophora japonica","baumbezeichnung_deutsch":"Schnurbaum","baumtyp":"Laub","bemerkung":null,"pflanzjahr":null,"entnahmejahr":null,"marker-size":"small","marker-symbol":"park2","marker-color":"#A3DDAD"},"geometry":{"type":"Point","coordinates":[15.4157609925237,47.08878810142554],"bbox":[15.4157609925237,47.08878810142554,15.4157609925237,47.08878810142554]}},{"type":"Feature","properties":{"nummer":22370,"baumbezeichnung_botanisch":"Sophora japonica","baumbezeichnung_deutsch":"Schnurbaum","baumtyp":"Laub","bemerkung":null,"pflanzjahr":null,"entnahmejahr":null,"marker-size":"small","marker-symbol":"park2","marker-color":"#A3DDAD"},"geometry":{"type":"Point","coordinates":[15.41582418930582,47.08882211952534],"bbox":[15.41582418930582,47.08882211952534,15.41582418930582,47.08882211952534]}},{"type":"Feature","properties":{"nummer":23138,"baumbezeichnung_botanisch":"Corylus avellana 'Fuscorubra'","baumbezeichnung_deutsch":"Rote Haselnuß","baumtyp":"Laub","bemerkung":null,"pflanzjahr":null,"entnahmejahr":null,"marker-size":"small","marker-symbol":"park2","marker-color":"#A3DDAD"},"geometry":{"type":"Point","coordinates":[15.4150198236716,47.08880559985803],"bbox":[15.4150198236716,47.08880559985803,15.4150198236716,47.08880559985803]}},{"type":"Feature","properties":{"nummer":12247,"baumbezeichnung_botanisch":"Chamaecyparis sp.","baumbezeichnung_deutsch":"Scheinzypresse","baumtyp":"Nadel","bemerkung":null,"pflanzjahr":null,"entnahmejahr":null,"marker-size":"small","marker-symbol":"park","marker-color":"#3BB451"},"geometry":{"type":"Point","coordinates":[15.41515828216537,47.08874304361871],"bbox":[15.41515828216537,47.08874304361871,15.41515828216537,47.08874304361871]}},{"type":"Feature","properties":{"nummer":455,"baumbezeichnung_botanisch":"Chamaecyparis sp.","baumbezeichnung_deutsch":"Scheinzypresse","baumtyp":"Nadel","bemerkung":null,"pflanzjahr":null,"entnahmejahr":null,"marker-size":"small","marker-symbol":"park","marker-color":"#3BB451"},"geometry":{"type":"Point","coordinates":[15.4151395830219,47.08868927723489],"bbox":[15.4151395830219,47.08868927723489,15.4151395830219,47.08868927723489]}},{"type":"Feature","properties":{"nummer":20071,"baumbezeichnung_botanisch":"Chamaecyparis sp.","baumbezeichnung_deutsch":"Scheinzypresse","baumtyp":"Nadel","bemerkung":null,"pflanzjahr":null,"entnahmejahr":null,"marker-size":"small","marker-symbol":"park","marker-color":"#3BB451"},"geometry":{"type":"Point","coordinates":[15.41522765568604,47.08870338903924],"bbox":[15.41522765568604,47.08870338903924,15.41522765568604,47.08870338903924]}},{"type":"Feature","properties":{"nummer":12491,"baumbezeichnung_botanisch":"Aesculus hippocastanum","baumbezeichnung_deutsch":"Gemeine Roßkastanie","baumtyp":"Laub","bemerkung":null,"pflanzjahr":null,"entnahmejahr":null,"marker-size":"small","marker-symbol":"park2","marker-color":"#A3DDAD"},"geometry":{"type":"Point","coordinates":[15.41518910343606,47.0886628674679],"bbox":[15.41518910343606,47.0886628674679,15.41518910343606,47.0886628674679]}},{"type":"Feature","properties":{"nummer":21252,"baumbezeichnung_botanisch":"Acer pseudoplatanus","baumbezeichnung_deutsch":"Bergahorn","baumtyp":"Laub","bemerkung":null,"pflanzjahr":null,"entnahmejahr":null,"marker-size":"small","marker-symbol":"park2","marker-color":"#A3DDAD"},"geometry":{"type":"Point","coordinates":[15.41527278804876,47.08864678528443],"bbox":[15.41527278804876,47.08864678528443,15.41527278804876,47.08864678528443]}},{"type":"Feature","properties":{"nummer":20738,"baumbezeichnung_botanisch":"Sophora japonica","baumbezeichnung_deutsch":"Schnurbaum","baumtyp":"Laub","bemerkung":null,"pflanzjahr":null,"entnahmejahr":null,"marker-size":"small","marker-symbol":"park2","marker-color":"#A3DDAD"},"geometry":{"type":"Point","coordinates":[15.41529345094607,47.08858663229958],"bbox":[15.41529345094607,47.08858663229958,15.41529345094607,47.08858663229958]}},{"type":"Feature","properties":{"nummer":16000,"baumbezeichnung_botanisch":"Prunus avium","baumbezeichnung_deutsch":"Vogelkirsche","baumtyp":"Laub","bemerkung":null,"pflanzjahr":null,"entnahmejahr":null,"marker-size":"small","marker-symbol":"park2","marker-color":"#A3DDAD"},"geometry":{"type":"Point","coordinates":[15.41877319448386,47.08864505418033],"bbox":[15.41877319448386,47.08864505418033,15.41877319448386,47.08864505418033]}},{"type":"Feature","properties":{"nummer":56866,"baumbezeichnung_botanisch":"Acer ginnala","baumbezeichnung_deutsch":"Feuerahorn","baumtyp":"Laub","bemerkung":null,"pflanzjahr":"2012","entnahmejahr":null,"marker-size":"small","marker-symbol":"park2","marker-color":"#A3DDAD"},"geometry":{"type":"Point","coordinates":[15.41740850963091,47.08872092676225],"bbox":[15.41740850963091,47.08872092676225,15.41740850963091,47.08872092676225]}},{"type":"Feature","properties":{"nummer":57193,"baumbezeichnung_botanisch":"Juglans regia","baumbezeichnung_deutsch":"Walnuß","baumtyp":"Laub","bemerkung":null,"pflanzjahr":"2012","entnahmejahr":null,"marker-size":"small","marker-symbol":"park2","marker-color":"#A3DDAD"},"geometry":{"type":"Point","coordinates":[15.41533913088052,47.08874719186725],"bbox":[15.41533913088052,47.08874719186725,15.41533913088052,47.08874719186725]}},{"type":"Feature","properties":{"nummer":21438,"baumbezeichnung_botanisch":"Acer platanoides","baumbezeichnung_deutsch":"Spitzahorn","baumtyp":"Laub","bemerkung":null,"pflanzjahr":"2011","entnahmejahr":null,"marker-size":"small","marker-symbol":"park2","marker-color":"#A3DDAD"},"geometry":{"type":"Point","coordinates":[15.41919512594536,47.08525625990147],"bbox":[15.41919512594536,47.08525625990147,15.41919512594536,47.08525625990147]}}]}