{"type":"FeatureCollection","features":[{"type":"Feature","properties":{"nummer":15724,"baumbezeichnung_botanisch":"Chamaecyparis sp.","baumbezeichnung_deutsch":"Scheinzypresse","baumtyp":"Nadel","altersklassifizierung":"mittel","bemerkung":null,"pflanzjahr":null,"entnahmejahr":null,"baumpatenschaft":null,"objectid":1368},"geometry":{"type":"Point","coordinates":[15.415139583021897,47.08868927723489],"bbox":[15.415139583021897,47.08868927723489,15.415139583021897,47.08868927723489]}},{"type":"Feature","properties":{"nummer":12855,"baumbezeichnung_botanisch":"Acer pseudoplatanus","baumbezeichnung_deutsch":"Bergahorn","baumtyp":"Laub","altersklassifizierung":"mittel","bemerkung":null,"pflanzjahr":null,"entnahmejahr":null,"baumpatenschaft":null,"objectid":1411},"geometry":{"type":"Point","coordinates":[15.41904541950333,47.08864008519146],"bbox":[15.41904541950333,47.08864008519146,15.41904541950333,47.08864008519146]}},{"type":"Feature","properties":{"nummer":12858,"baumbezeichnung_botanisch":"Sophora japonica","baumbezeichnung_deutsch":"Schnurbaum","baumtyp":"Laub","altersklassifizierung":"alt","bemerkung":null,"pflanzjahr":null,"entnahmejahr":null,"baumpatenschaft":null,"objectid":1412},"geometry":{"type":"Point","coordinates":[15.41897481657687,47.08878964566736],"bbox":[15.41897481657687,47.08878964566736,15.41897481657687,47.08878964566736]}},{"type":"Feature","properties":{"nummer":21757,"baumbezeichnung_botanisch":"Fagus sylvatica","baumbezeichnung_deutsch":"Rotbuche","baumtyp":"Laub","altersklassifizierung":"jung","bemerkung":null,"pflanzjahr":"1998","entnahmejahr":null,"baumpatenschaft":null,"objectid":1664},"geometry":{"type":"Point","coordinates":[15.415342219119262,47.08860377953526],"bbox":[15.415342219119262,47.08860377953526,15.415342219119262,47.08860377953526]}},{"type":"Feature","properties":{"nummer":12915,"baumbezeichnung_botanisch":"Sophora japonica","baumbezeichnung_deutsch":"Schnurbaum","baumtyp":"Laub","altersklassifizierung":"alt","bemerkung":null,"pflanzjahr":null,"entnahmejahr":null,"baumpatenschaft":null,"objectid":1433},"geometry":{"type":"Point","coordinates":[15.418631341477637,47.08837226134452],"bbox":[15.418631341477637,47.08837226134452,15.418631341477637,47.08837226134452]}},{"type":"Feature","properties":{"nummer":25016,"baumbezeichnung_botanisch":"Acer platanoides","baumbezeichnung_deutsch":"Spitzahorn","baumtyp":"Laub","altersklassifizierung":"jung","bemerkung":null,"pflanzjahr":"2006","entnahmejahr":null,"baumpatenschaft":null,"objectid":2306},"geometry":{"type":"Point","coordinates":[15.418992179478158,47.085155798718816],"bbox":[15.418992179478158,47.085155798718816,15.418992179478158,47.085155798718816]}},{"type":"Feature","properties":{"nummer":15727,"baumbezeichnung_botanisch":"Acer pseudoplatanus","baumbezeichnung_deutsch":"Bergahorn","baumtyp":"Laub","altersklassifizierung":"alt","bemerkung":null,"pflanzjahr":null,"entnahmejahr":null,"baumpatenschaft":null,"objectid":3601},"geometry":{"type":"Point","coordinates":[15.415272788048755,47.088646785284425],"bbox":[15.415272788048755,47.088646785284425,15.415272788048755,47.088646785284425]}},{"type":"Feature","properties":{"nummer":12912,"baumbezeichnung_botanisch":"Sophora japonica","baumbezeichnung_deutsch":"Schnurbaum","baumtyp":"Laub","altersklassifizierung":"alt","bemerkung":null,"pflanzjahr":null,"entnahmejahr":null,"baumpatenschaft":null,"objectid":3760},"geometry":{"type":"Point","coordinates":[15.418542876176513,47.08834295724049],"bbox":[15.418542876176513,47.08834295724049,15.418542876176513,47.08834295724049]}},{"type":"Feature","properties":{"nummer":15693,"baumbezeichnung_botanisch":"Prunus sp.","baumbezeichnung_deutsch":"Kirsche","baumtyp":"Laub","altersklassifizierung":"jung","bemerkung":null,"pflanzjahr":null,"entnahmejahr":null,"baumpatenschaft":null,"objectid":4673},"geometry":{"type":"Point","coordinates":[15.41548211735644,47.08874229674995],"bbox":[15.41548211735644,47.08874229674995,15.41548211735644,47.08874229674995]}},{"type":"Feature","properties":{"nummer":15699,"baumbezeichnung_botanisch":"Sophora japonica","baumbezeichnung_deutsch":"Schnurbaum","baumtyp":"Laub","altersklassifizierung":"mittel","bemerkung":null,"pflanzjahr":null,"entnahmejahr":null,"baumpatenschaft":null,"objectid":4706},"geometry":{"type":"Point","coordinates":[15.415760992523701,47.08878810142554],"bbox":[15.415760992523701,47.08878810142554,15.415760992523701,47.08878810142554]}},{"type":"Feature","properties":{"nummer":11651,"baumbezeichnung_botanisch":"Acer platanoides","baumbezeichnung_deutsch":"Spitzahorn","baumtyp":"Laub","altersklassifizierung":"mittel","bemerkung":null,"pflanzjahr":null,"entnahmejahr":null,"baumpatenschaft":null,"objectid":4867},"geometry":{"type":"Point","coordinates":[15.418798509187022,47.08525236400619],"bbox":[15.418798509187022,47.08525236400619,15.418798509187022,47.08525236400619]}},{"type":"Feature","properties":{"nummer":29350,"baumbezeichnung_botanisch":"Acer platanoides","baumbezeichnung_deutsch":"Spitzahorn","baumtyp":"Laub","altersklassifizierung":"jung","bemerkung":null,"pflanzjahr":"2009","entnahmejahr":null,"baumpatenschaft":null,"objectid":9920},"geometry":{"type":"Point","coordinates":[15.419153630257343,47.08541966496302],"bbox":[15.419153630257343,47.08541966496302,15.419153630257343,47.08541966496302]}},{"type":"Feature","properties":{"nummer":21756,"baumbezeichnung_botanisch":"Betula pendula","baumbezeichnung_deutsch":"Sandbirke, Weißbirke","baumtyp":"Laub","altersklassifizierung":"jung","bemerkung":null,"pflanzjahr":"1998","entnahmejahr":null,"baumpatenschaft":null,"objectid":10852},"geometry":{"type":"Point","coordinates":[15.415542025391328,47.088682460108956],"bbox":[15.415542025391328,47.088682460108956,15.415542025391328,47.088682460108956]}},{"type":"Feature","properties":{"nummer":15719,"baumbezeichnung_botanisch":"Corylus avellana 'Fuscorubra'","baumbezeichnung_deutsch":"Rote Haselnuß","baumtyp":"Laub","altersklassifizierung":"mittel","bemerkung":null,"pflanzjahr":null,"entnahmejahr":null,"baumpatenschaft":null,"objectid":7544},"geometry":{"type":"Point","coordinates":[15.415019823671596,47.08880559985803],"bbox":[15.415019823671596,47.08880559985803,15.415019823671596,47.08880559985803]}},{"type":"Feature","properties":{"nummer":15700,"baumbezeichnung_botanisch":"Sophora japonica","baumbezeichnung_deutsch":"Schnurbaum","baumtyp":"Laub","altersklassifizierung":"mittel","bemerkung":null,"pflanzjahr":null,"entnahmejahr":null,"baumpatenschaft":null,"objectid":7709},"geometry":{"type":"Point","coordinates":[15.415824189305816,47.08882211952534],"bbox":[15.415824189305816,47.08882211952534,15.415824189305816,47.08882211952534]}},{"type":"Feature","properties":{"nummer":12853,"baumbezeichnung_botanisch":"Tilia cordata","baumbezeichnung_deutsch":"Winterlinde","baumtyp":"Laub","altersklassifizierung":"mittel","bemerkung":null,"pflanzjahr":null,"entnahmejahr":null,"baumpatenschaft":null,"objectid":13481},"geometry":{"type":"Point","coordinates":[15.418951967219297,47.088596443809266],"bbox":[15.418951967219297,47.088596443809266,15.418951967219297,47.088596443809266]}},{"type":"Feature","properties":{"nummer":11693,"baumbezeichnung_botanisch":"Aesculus hippocastanum","baumbezeichnung_deutsch":"Gemeine Roßkastanie","baumtyp":"Laub","altersklassifizierung":"alt","bemerkung":null,"pflanzjahr":null,"entnahmejahr":null,"baumpatenschaft":null,"objectid":15136},"geometry":{"type":"Point","coordinates":[15.419272553148124,47.08529278814557],"bbox":[15.419272553148124,47.08529278814557,15.419272553148124,47.08529278814557]}},{"type":"Feature","properties":{"nummer":12854,"baumbezeichnung_botanisch":"Robinia pseudoacacia","baumbezeichnung_deutsch":"Scheinakazie","baumtyp":"Laub","altersklassifizierung":"mittel","bemerkung":null,"pflanzjahr":null,"entnahmejahr":null,"baumpatenschaft":null,"objectid":14542},"geometry":{"type":"Point","coordinates":[15.41908290855657,47.088590343134584],"bbox":[15.41908290855657,47.088590343134584,15.41908290855657,47.088590343134584]}},{"type":"Feature","properties":{"nummer":15695,"baumbezeichnung_botanisch":"Populus nigra 'Italica'","baumbezeichnung_deutsch":"Säulenpappel","baumtyp":"Laub","altersklassifizierung":"alt","bemerkung":null,"pflanzjahr":null,"entnahmejahr":"1998","baumpatenschaft":null,"objectid":14598},"geometry":{"type":"Point","coordinates":[15.415643428112833,47.08877710365378],"bbox":[15.415643428112833,47.08877710365378,15.415643428112833,47.08877710365378]}},{"type":"Feature","properties":{"nummer":25015,"baumbezeichnung_botanisch":"Acer platanoides","baumbezeichnung_deutsch":"Spitzahorn","baumtyp":"Laub","altersklassifizierung":"jung","bemerkung":"Entfernung auf Grund Kronenbruches beim Gewittersturm 29.07.2013, auf Grund des dichten Bestandes drzt kein Ersatz geplant","pflanzjahr":"2006","entnahmejahr":"2013","baumpatenschaft":null,"objectid":14703},"geometry":{"type":"Point","coordinates":[15.419043332435718,47.08518596226938],"bbox":[15.419043332435718,47.08518596226938,15.419043332435718,47.08518596226938]}},{"type":"Feature","properties":{"nummer":21754,"baumbezeichnung_botanisch":"Carpinus betulus 'Fastigiata'","baumbezeichnung_deutsch":"Säulenhainbuche","baumtyp":"Laub","altersklassifizierung":"jung","bemerkung":null,"pflanzjahr":"1998","entnahmejahr":null,"baumpatenschaft":null,"objectid":14817},"geometry":{"type":"Point","coordinates":[15.415614975853906,47.08871990739321],"bbox":[15.415614975853906,47.08871990739321,15.415614975853906,47.08871990739321]}},{"type":"Feature","properties":{"nummer":27541,"baumbezeichnung_botanisch":"Acer platanoides","baumbezeichnung_deutsch":"Spitzahorn","baumtyp":"Laub","altersklassifizierung":"jung","bemerkung":null,"pflanzjahr":"2007","entnahmejahr":null,"baumpatenschaft":null,"objectid":12623},"geometry":{"type":"Point","coordinates":[15.418689115258434,47.08520004486366],"bbox":[15.418689115258434,47.08520004486366,15.418689115258434,47.08520004486366]}},{"type":"Feature","properties":{"nummer":11691,"baumbezeichnung_botanisch":"Aesculus hippocastanum","baumbezeichnung_deutsch":"Gemeine Roßkastanie","baumtyp":"Laub","altersklassifizierung":"alt","bemerkung":null,"pflanzjahr":null,"entnahmejahr":null,"baumpatenschaft":null,"objectid":24614},"geometry":{"type":"Point","coordinates":[15.419118547259826,47.08522170832014],"bbox":[15.419118547259826,47.08522170832014,15.419118547259826,47.08522170832014]}},{"type":"Feature","properties":{"nummer":12856,"baumbezeichnung_botanisch":"Sophora japonica","baumbezeichnung_deutsch":"Schnurbaum","baumtyp":"Laub","altersklassifizierung":"alt","bemerkung":null,"pflanzjahr":null,"entnahmejahr":null,"baumpatenschaft":null,"objectid":22315},"geometry":{"type":"Point","coordinates":[15.419023506889635,47.08869710035568],"bbox":[15.419023506889635,47.08869710035568,15.419023506889635,47.08869710035568]}},{"type":"Feature","properties":{"nummer":15726,"baumbezeichnung_botanisch":"Aesculus hippocastanum","baumbezeichnung_deutsch":"Gemeine Roßkastanie","baumtyp":"Laub","altersklassifizierung":"alt","bemerkung":null,"pflanzjahr":null,"entnahmejahr":null,"baumpatenschaft":null,"objectid":23118},"geometry":{"type":"Point","coordinates":[15.415189103436063,47.0886628674679],"bbox":[15.415189103436063,47.0886628674679,15.415189103436063,47.0886628674679]}},{"type":"Feature","properties":{"nummer":12913,"baumbezeichnung_botanisch":"Sophora japonica","baumbezeichnung_deutsch":"Schnurbaum","baumtyp":"Laub","altersklassifizierung":"alt","bemerkung":null,"pflanzjahr":null,"entnahmejahr":null,"baumpatenschaft":null,"objectid":23215},"geometry":{"type":"Point","coordinates":[15.418541587068654,47.088418009858245],"bbox":[15.418541587068654,47.088418009858245,15.418541587068654,47.088418009858245]}},{"type":"Feature","properties":{"nummer":15725,"baumbezeichnung_botanisch":"Chamaecyparis sp.","baumbezeichnung_deutsch":"Scheinzypresse","baumtyp":"Nadel","altersklassifizierung":"mittel","bemerkung":null,"pflanzjahr":null,"entnahmejahr":null,"baumpatenschaft":null,"objectid":24225},"geometry":{"type":"Point","coordinates":[15.41522765568604,47.08870338903924],"bbox":[15.41522765568604,47.08870338903924,15.41522765568604,47.08870338903924]}},{"type":"Feature","properties":{"nummer":15723,"baumbezeichnung_botanisch":"Chamaecyparis sp.","baumbezeichnung_deutsch":"Scheinzypresse","baumtyp":"Nadel","altersklassifizierung":"mittel","bemerkung":null,"pflanzjahr":null,"entnahmejahr":null,"baumpatenschaft":null,"objectid":23591},"geometry":{"type":"Point","coordinates":[15.415158282165367,47.088743043618706],"bbox":[15.415158282165367,47.088743043618706,15.415158282165367,47.088743043618706]}},{"type":"Feature","properties":{"nummer":21755,"baumbezeichnung_botanisch":"Quercus robur","baumbezeichnung_deutsch":"Stieleiche","baumtyp":"Laub","altersklassifizierung":"jung","bemerkung":null,"pflanzjahr":"1998","entnahmejahr":null,"baumpatenschaft":null,"objectid":24445},"geometry":{"type":"Point","coordinates":[15.415555759378236,47.08873953807722],"bbox":[15.415555759378236,47.08873953807722,15.415555759378236,47.08873953807722]}},{"type":"Feature","properties":{"nummer":21751,"baumbezeichnung_botanisch":"Fagus sylvatica 'Purpurea'","baumbezeichnung_deutsch":"Purpurbuche","baumtyp":"Laub","altersklassifizierung":"jung","bemerkung":null,"pflanzjahr":"1998","entnahmejahr":null,"baumpatenschaft":null,"objectid":19104},"geometry":{"type":"Point","coordinates":[15.415691907928485,47.08881100353574],"bbox":[15.415691907928485,47.08881100353574,15.415691907928485,47.08881100353574]}},{"type":"Feature","properties":{"nummer":20127,"baumbezeichnung_botanisch":"Prunus avium","baumbezeichnung_deutsch":"Vogelkirsche","baumtyp":"Laub","altersklassifizierung":"jung","bemerkung":null,"pflanzjahr":null,"entnahmejahr":null,"baumpatenschaft":null,"objectid":18796},"geometry":{"type":"Point","coordinates":[15.418773194483858,47.088645054180326],"bbox":[15.418773194483858,47.088645054180326,15.418773194483858,47.088645054180326]}},{"type":"Feature","properties":{"nummer":31449,"baumbezeichnung_botanisch":"Acer platanoides","baumbezeichnung_deutsch":"Spitzahorn","baumtyp":"Laub","altersklassifizierung":"jung","bemerkung":null,"pflanzjahr":"2013","entnahmejahr":null,"baumpatenschaft":null,"objectid":28323},"geometry":{"type":"Point","coordinates":[15.419305706225693,47.08549273518891],"bbox":[15.419305706225693,47.08549273518891,15.419305706225693,47.08549273518891]}},{"type":"Feature","properties":{"nummer":19762,"baumbezeichnung_botanisch":"Tilia platyphyllos","baumbezeichnung_deutsch":"Sommerlinde","baumtyp":"Laub","altersklassifizierung":"jung","bemerkung":null,"pflanzjahr":"1995","entnahmejahr":null,"baumpatenschaft":null,"objectid":27945},"geometry":{"type":"Point","coordinates":[15.418475709012826,47.087893137852234],"bbox":[15.418475709012826,47.087893137852234,15.418475709012826,47.087893137852234]}},{"type":"Feature","properties":{"nummer":31060,"baumbezeichnung_botanisch":"Juglans regia","baumbezeichnung_deutsch":"Walnuß","baumtyp":"Laub","altersklassifizierung":"jung","bemerkung":"Baum zur Gänze abgestorben, Ersatzpflanzung geplant","pflanzjahr":"2012","entnahmejahr":null,"baumpatenschaft":null,"objectid":27948},"geometry":{"type":"Point","coordinates":[15.415339130880515,47.08874719186725],"bbox":[15.415339130880515,47.08874719186725,15.415339130880515,47.08874719186725]}},{"type":"Feature","properties":{"nummer":12857,"baumbezeichnung_botanisch":"Acer pseudoplatanus","baumbezeichnung_deutsch":"Bergahorn","baumtyp":"Laub","altersklassifizierung":"mittel","bemerkung":null,"pflanzjahr":null,"entnahmejahr":null,"baumpatenschaft":null,"objectid":28176},"geometry":{"type":"Point","coordinates":[15.418991252097657,47.08874688431071],"bbox":[15.418991252097657,47.08874688431071,15.418991252097657,47.08874688431071]}},{"type":"Feature","properties":{"nummer":15728,"baumbezeichnung_botanisch":"Sophora japonica","baumbezeichnung_deutsch":"Schnurbaum","baumtyp":"Laub","altersklassifizierung":"mittel","bemerkung":null,"pflanzjahr":null,"entnahmejahr":null,"baumpatenschaft":null,"objectid":28191},"geometry":{"type":"Point","coordinates":[15.415293450946065,47.08858663229958],"bbox":[15.415293450946065,47.08858663229958,15.415293450946065,47.08858663229958]}},{"type":"Feature","properties":{"nummer":12916,"baumbezeichnung_botanisch":"Picea abies","baumbezeichnung_deutsch":"Rotfichte","baumtyp":"Nadel","altersklassifizierung":"jung","bemerkung":null,"pflanzjahr":null,"entnahmejahr":null,"baumpatenschaft":null,"objectid":26578},"geometry":{"type":"Point","coordinates":[15.418829325976514,47.088423888707005],"bbox":[15.418829325976514,47.088423888707005,15.418829325976514,47.088423888707005]}},{"type":"Feature","properties":{"nummer":19761,"baumbezeichnung_botanisch":"Tilia platyphyllos","baumbezeichnung_deutsch":"Sommerlinde","baumtyp":"Laub","altersklassifizierung":"jung","bemerkung":null,"pflanzjahr":"1995","entnahmejahr":null,"baumpatenschaft":null,"objectid":27204},"geometry":{"type":"Point","coordinates":[15.41843605484927,47.08797016869796],"bbox":[15.41843605484927,47.08797016869796,15.41843605484927,47.08797016869796]}},{"type":"Feature","properties":{"nummer":31015,"baumbezeichnung_botanisch":"Acer ginnala","baumbezeichnung_deutsch":"Feuerahorn","baumtyp":"Laub","altersklassifizierung":"jung","bemerkung":null,"pflanzjahr":"2012","entnahmejahr":null,"baumpatenschaft":null,"objectid":26830},"geometry":{"type":"Point","coordinates":[15.417408509630906,47.08872092676225],"bbox":[15.417408509630906,47.08872092676225,15.417408509630906,47.08872092676225]}},{"type":"Feature","properties":{"nummer":30381,"baumbezeichnung_botanisch":"Acer platanoides","baumbezeichnung_deutsch":"Spitzahorn","baumtyp":"Laub","altersklassifizierung":"jung","bemerkung":null,"pflanzjahr":"2011","entnahmejahr":null,"baumpatenschaft":null,"objectid":27429},"geometry":{"type":"Point","coordinates":[15.419195125945361,47.08525625990147],"bbox":[15.419195125945361,47.08525625990147,15.419195125945361,47.08525625990147]}}]}