{"type":"FeatureCollection","features":[{"type":"Feature","properties":{"nummer":22463,"baumbezeichnung_botanisch":"Castanea sativa","baumbezeichnung_deutsch":"Eßkastanie","baumtyp":"Laub","bemerkung":null,"pflanzjahr":null,"entnahmejahr":null,"marker-size":"small","marker-symbol":"park2","marker-color":"#A3DDAD"},"geometry":{"type":"Point","coordinates":[15.4459098194696,47.09503550960336],"bbox":[15.4459098194696,47.09503550960336,15.4459098194696,47.09503550960336]}},{"type":"Feature","properties":{"nummer":27170,"baumbezeichnung_botanisch":"Salix caprea","baumbezeichnung_deutsch":"Salweide","baumtyp":"Laub","bemerkung":null,"pflanzjahr":null,"entnahmejahr":null,"marker-size":"small","marker-symbol":"park2","marker-color":"#A3DDAD"},"geometry":{"type":"Point","coordinates":[15.44435169925703,47.0945482857308],"bbox":[15.44435169925703,47.0945482857308,15.44435169925703,47.0945482857308]}},{"type":"Feature","properties":{"nummer":19931,"baumbezeichnung_botanisch":"Carpinus betulus","baumbezeichnung_deutsch":"Hain - oder Weißbuche","baumtyp":"Laub","bemerkung":null,"pflanzjahr":null,"entnahmejahr":null,"marker-size":"small","marker-symbol":"park2","marker-color":"#A3DDAD"},"geometry":{"type":"Point","coordinates":[15.44442260089754,47.09466729637536],"bbox":[15.44442260089754,47.09466729637536,15.44442260089754,47.09466729637536]}},{"type":"Feature","properties":{"nummer":24621,"baumbezeichnung_botanisch":"Fraxinus excelsior","baumbezeichnung_deutsch":"Esche","baumtyp":"Laub","bemerkung":null,"pflanzjahr":null,"entnahmejahr":null,"marker-size":"small","marker-symbol":"park2","marker-color":"#A3DDAD"},"geometry":{"type":"Point","coordinates":[15.44445493998902,47.09466522654654],"bbox":[15.44445493998902,47.09466522654654,15.44445493998902,47.09466522654654]}},{"type":"Feature","properties":{"nummer":16066,"baumbezeichnung_botanisch":"Tilia cordata","baumbezeichnung_deutsch":"Winterlinde","baumtyp":"Laub","bemerkung":null,"pflanzjahr":null,"entnahmejahr":null,"marker-size":"small","marker-symbol":"park2","marker-color":"#A3DDAD"},"geometry":{"type":"Point","coordinates":[15.44444482668737,47.09461048396123],"bbox":[15.44444482668737,47.09461048396123,15.44444482668737,47.09461048396123]}}]}