{"type":"FeatureCollection","features":[{"type":"Feature","properties":{"nummer":21007,"baumbezeichnung_botanisch":"Tilia cordata","baumbezeichnung_deutsch":"Winterlinde","baumtyp":"Laub","bemerkung":null,"pflanzjahr":null,"entnahmejahr":null,"marker-size":"small","marker-symbol":"park2","marker-color":"#A3DDAD"},"geometry":{"type":"Point","coordinates":[15.46169887026165,47.03765646076801],"bbox":[15.46169887026165,47.03765646076801,15.46169887026165,47.03765646076801]}},{"type":"Feature","properties":{"nummer":14782,"baumbezeichnung_botanisch":"Tilia cordata","baumbezeichnung_deutsch":"Winterlinde","baumtyp":"Laub","bemerkung":null,"pflanzjahr":null,"entnahmejahr":null,"marker-size":"small","marker-symbol":"park2","marker-color":"#A3DDAD"},"geometry":{"type":"Point","coordinates":[15.46195134811165,47.03748554155092],"bbox":[15.46195134811165,47.03748554155092,15.46195134811165,47.03748554155092]}},{"type":"Feature","properties":{"nummer":17253,"baumbezeichnung_botanisch":"Platanus x acerifolia","baumbezeichnung_deutsch":"Platane","baumtyp":"Laub","bemerkung":null,"pflanzjahr":null,"entnahmejahr":null,"marker-size":"small","marker-symbol":"park2","marker-color":"#A3DDAD"},"geometry":{"type":"Point","coordinates":[15.46228685794148,47.03707159961373],"bbox":[15.46228685794148,47.03707159961373,15.46228685794148,47.03707159961373]}},{"type":"Feature","properties":{"nummer":14590,"baumbezeichnung_botanisch":"Prunus serrulata 'Kanzan'","baumbezeichnung_deutsch":"Japanische Blütenkirsche","baumtyp":"Laub","bemerkung":null,"pflanzjahr":null,"entnahmejahr":null,"marker-size":"small","marker-symbol":"park2","marker-color":"#A3DDAD"},"geometry":{"type":"Point","coordinates":[15.46259394486335,47.03702762223324],"bbox":[15.46259394486335,47.03702762223324,15.46259394486335,47.03702762223324]}},{"type":"Feature","properties":{"nummer":19266,"baumbezeichnung_botanisch":"Prunus serrulata 'Kanzan'","baumbezeichnung_deutsch":"Japanische Blütenkirsche","baumtyp":"Laub","bemerkung":null,"pflanzjahr":null,"entnahmejahr":null,"marker-size":"small","marker-symbol":"park2","marker-color":"#A3DDAD"},"geometry":{"type":"Point","coordinates":[15.46275964830572,47.03698256484694],"bbox":[15.46275964830572,47.03698256484694,15.46275964830572,47.03698256484694]}},{"type":"Feature","properties":{"nummer":17446,"baumbezeichnung_botanisch":"Prunus avium","baumbezeichnung_deutsch":"Vogelkirsche","baumtyp":"Laub","bemerkung":null,"pflanzjahr":null,"entnahmejahr":null,"marker-size":"small","marker-symbol":"park2","marker-color":"#A3DDAD"},"geometry":{"type":"Point","coordinates":[15.46292819714778,47.03694357095462],"bbox":[15.46292819714778,47.03694357095462,15.46292819714778,47.03694357095462]}},{"type":"Feature","properties":{"nummer":7766,"baumbezeichnung_botanisch":"Acer platanoides","baumbezeichnung_deutsch":"Spitzahorn","baumtyp":"Laub","bemerkung":null,"pflanzjahr":"1900","entnahmejahr":null,"marker-size":"small","marker-symbol":"park2","marker-color":"#A3DDAD"},"geometry":{"type":"Point","coordinates":[15.46310538663981,47.03691672676371],"bbox":[15.46310538663981,47.03691672676371,15.46310538663981,47.03691672676371]}}]}