{"type":"FeatureCollection","features":[{"type":"Feature","properties":{"nummer":26883,"baumbezeichnung_botanisch":"Acer pseudoplatanus","baumbezeichnung_deutsch":"Bergahorn","baumtyp":"Laub","altersklassifizierung":"jung","bemerkung":"Entnahme auf Grund des dichten Bestandes, drzt kein Ersatz geplant","pflanzjahr":null,"entnahmejahr":"2014","baumpatenschaft":null,"objectid":1034},"geometry":{"type":"Point","coordinates":[15.463897291921455,47.06769235282885],"bbox":[15.463897291921455,47.06769235282885,15.463897291921455,47.06769235282885]}},{"type":"Feature","properties":{"nummer":26882,"baumbezeichnung_botanisch":"Acer pseudoplatanus","baumbezeichnung_deutsch":"Bergahorn","baumtyp":"Laub","altersklassifizierung":"jung","bemerkung":"Entnahme auf Grund des dichten Bestandes, drzt kein Ersatz geplant","pflanzjahr":null,"entnahmejahr":"2014","baumpatenschaft":null,"objectid":1038},"geometry":{"type":"Point","coordinates":[15.463879383082404,47.0677122412952],"bbox":[15.463879383082404,47.0677122412952,15.463879383082404,47.0677122412952]}},{"type":"Feature","properties":{"nummer":26886,"baumbezeichnung_botanisch":"Acer pseudoplatanus","baumbezeichnung_deutsch":"Bergahorn","baumtyp":"Laub","altersklassifizierung":"jung","bemerkung":null,"pflanzjahr":null,"entnahmejahr":null,"baumpatenschaft":null,"objectid":1039},"geometry":{"type":"Point","coordinates":[15.463951127186878,47.06762601658091],"bbox":[15.463951127186878,47.06762601658091,15.463951127186878,47.06762601658091]}},{"type":"Feature","properties":{"nummer":26885,"baumbezeichnung_botanisch":"Acer pseudoplatanus","baumbezeichnung_deutsch":"Bergahorn","baumtyp":"Laub","altersklassifizierung":"jung","bemerkung":null,"pflanzjahr":null,"entnahmejahr":null,"baumpatenschaft":null,"objectid":1040},"geometry":{"type":"Point","coordinates":[15.463933196629991,47.06764723886266],"bbox":[15.463933196629991,47.06764723886266,15.463933196629991,47.06764723886266]}},{"type":"Feature","properties":{"nummer":26884,"baumbezeichnung_botanisch":"Acer pseudoplatanus","baumbezeichnung_deutsch":"Bergahorn","baumtyp":"Laub","altersklassifizierung":"jung","bemerkung":null,"pflanzjahr":null,"entnahmejahr":null,"baumpatenschaft":null,"objectid":1041},"geometry":{"type":"Point","coordinates":[15.463915244283347,47.06766979584727],"bbox":[15.463915244283347,47.06766979584727,15.463915244283347,47.06766979584727]}},{"type":"Feature","properties":{"nummer":26887,"baumbezeichnung_botanisch":"Picea abies","baumbezeichnung_deutsch":"Rotfichte","baumtyp":"Nadel","altersklassifizierung":"mittel","bemerkung":null,"pflanzjahr":null,"entnahmejahr":null,"baumpatenschaft":null,"objectid":1048},"geometry":{"type":"Point","coordinates":[15.463900747953554,47.06760026850821],"bbox":[15.463900747953554,47.06760026850821,15.463900747953554,47.06760026850821]}},{"type":"Feature","properties":{"nummer":26889,"baumbezeichnung_botanisch":"Chamaecyparis sp.","baumbezeichnung_deutsch":"Scheinzypresse","baumtyp":"Nadel","altersklassifizierung":"mittel","bemerkung":null,"pflanzjahr":null,"entnahmejahr":null,"baumpatenschaft":null,"objectid":1050},"geometry":{"type":"Point","coordinates":[15.463782431913064,47.06754730457629],"bbox":[15.463782431913064,47.06754730457629,15.463782431913064,47.06754730457629]}},{"type":"Feature","properties":{"nummer":12441,"baumbezeichnung_botanisch":"Larix decidua","baumbezeichnung_deutsch":"Europäische Lärche","baumtyp":"Nadel","altersklassifizierung":"alt","bemerkung":null,"pflanzjahr":null,"entnahmejahr":null,"baumpatenschaft":null,"objectid":1286},"geometry":{"type":"Point","coordinates":[15.464168135646723,47.066919748165915],"bbox":[15.464168135646723,47.066919748165915,15.464168135646723,47.066919748165915]}},{"type":"Feature","properties":{"nummer":12463,"baumbezeichnung_botanisch":"Malus 'Kulturapfel'","baumbezeichnung_deutsch":"Apfelbaum","baumtyp":"Laub","altersklassifizierung":"mittel","bemerkung":null,"pflanzjahr":null,"entnahmejahr":null,"baumpatenschaft":null,"objectid":1287},"geometry":{"type":"Point","coordinates":[15.464177703385241,47.066721687892695],"bbox":[15.464177703385241,47.066721687892695,15.464177703385241,47.066721687892695]}},{"type":"Feature","properties":{"nummer":23725,"baumbezeichnung_botanisch":"Prunus sp.","baumbezeichnung_deutsch":"Kirsche","baumtyp":"Laub","altersklassifizierung":"jung","bemerkung":null,"pflanzjahr":null,"entnahmejahr":null,"baumpatenschaft":null,"objectid":1288},"geometry":{"type":"Point","coordinates":[15.464082317235185,47.0665466483322],"bbox":[15.464082317235185,47.0665466483322,15.464082317235185,47.0665466483322]}},{"type":"Feature","properties":{"nummer":12465,"baumbezeichnung_botanisch":"Euonymus europaeus","baumbezeichnung_deutsch":"Pfaffenhütchen","baumtyp":"Laub","altersklassifizierung":"mittel","bemerkung":null,"pflanzjahr":null,"entnahmejahr":null,"baumpatenschaft":null,"objectid":11591},"geometry":{"type":"Point","coordinates":[15.464244959280805,47.066581450148604],"bbox":[15.464244959280805,47.066581450148604,15.464244959280805,47.066581450148604]}},{"type":"Feature","properties":{"nummer":27525,"baumbezeichnung_botanisch":"Prunus 'Frucht'","baumbezeichnung_deutsch":"Fruchtkirsche","baumtyp":"Laub","altersklassifizierung":"jung","bemerkung":null,"pflanzjahr":"2007","entnahmejahr":null,"baumpatenschaft":null,"objectid":16286},"geometry":{"type":"Point","coordinates":[15.464031771859634,47.06663396197917],"bbox":[15.464031771859634,47.06663396197917,15.464031771859634,47.06663396197917]}},{"type":"Feature","properties":{"nummer":12462,"baumbezeichnung_botanisch":"Malus 'Kulturapfel'","baumbezeichnung_deutsch":"Apfelbaum","baumtyp":"Laub","altersklassifizierung":"alt","bemerkung":null,"pflanzjahr":null,"entnahmejahr":null,"baumpatenschaft":null,"objectid":23477},"geometry":{"type":"Point","coordinates":[15.464351758799022,47.06663964653906],"bbox":[15.464351758799022,47.06663964653906,15.464351758799022,47.06663964653906]}},{"type":"Feature","properties":{"nummer":26892,"baumbezeichnung_botanisch":"Acer negundo","baumbezeichnung_deutsch":"Eschenahorn","baumtyp":"Laub","altersklassifizierung":"mittel","bemerkung":null,"pflanzjahr":null,"entnahmejahr":null,"baumpatenschaft":null,"objectid":27363},"geometry":{"type":"Point","coordinates":[15.463404590743467,47.06760620755933],"bbox":[15.463404590743467,47.06760620755933,15.463404590743467,47.06760620755933]}},{"type":"Feature","properties":{"nummer":26891,"baumbezeichnung_botanisch":"Malus 'Frucht'","baumbezeichnung_deutsch":"Fruchtapfelbaum","baumtyp":"Laub","altersklassifizierung":"mittel","bemerkung":null,"pflanzjahr":null,"entnahmejahr":null,"baumpatenschaft":null,"objectid":27364},"geometry":{"type":"Point","coordinates":[15.46358734021859,47.067613549503896],"bbox":[15.46358734021859,47.067613549503896,15.46358734021859,47.067613549503896]}},{"type":"Feature","properties":{"nummer":26890,"baumbezeichnung_botanisch":"Malus 'Frucht'","baumbezeichnung_deutsch":"Fruchtapfelbaum","baumtyp":"Laub","altersklassifizierung":"jung","bemerkung":null,"pflanzjahr":null,"entnahmejahr":null,"baumpatenschaft":null,"objectid":27365},"geometry":{"type":"Point","coordinates":[15.463624588646635,47.067572184232425],"bbox":[15.463624588646635,47.067572184232425,15.463624588646635,47.067572184232425]}},{"type":"Feature","properties":{"nummer":26895,"baumbezeichnung_botanisch":"Sorbus aria","baumbezeichnung_deutsch":"Mehlbeere","baumtyp":"Laub","altersklassifizierung":"alt","bemerkung":null,"pflanzjahr":null,"entnahmejahr":null,"baumpatenschaft":null,"objectid":27366},"geometry":{"type":"Point","coordinates":[15.463359813438588,47.06736192029037],"bbox":[15.463359813438588,47.06736192029037,15.463359813438588,47.06736192029037]}},{"type":"Feature","properties":{"nummer":12464,"baumbezeichnung_botanisch":"Malus 'Kulturapfel'","baumbezeichnung_deutsch":"Apfelbaum","baumtyp":"Laub","altersklassifizierung":"mittel","bemerkung":null,"pflanzjahr":null,"entnahmejahr":null,"baumpatenschaft":null,"objectid":26051},"geometry":{"type":"Point","coordinates":[15.464192723375541,47.06667524725137],"bbox":[15.464192723375541,47.06667524725137,15.464192723375541,47.06667524725137]}}]}