{"type":"FeatureCollection","features":[{"type":"Feature","properties":{"nummer":25549,"baumbezeichnung_botanisch":"Prunus sp.","baumbezeichnung_deutsch":"Kirsche","baumtyp":"Laub","bemerkung":null,"pflanzjahr":"2005","entnahmejahr":null,"marker-size":"small","marker-symbol":"park2","marker-color":"#A3DDAD"},"geometry":{"type":"Point","coordinates":[15.41543259515598,47.08905354355858],"bbox":[15.41543259515598,47.08905354355858,15.41543259515598,47.08905354355858]}},{"type":"Feature","properties":{"nummer":15746,"baumbezeichnung_botanisch":"Acer pseudoplatanus","baumbezeichnung_deutsch":"Bergahorn","baumtyp":"Laub","bemerkung":null,"pflanzjahr":null,"entnahmejahr":null,"marker-size":"small","marker-symbol":"park2","marker-color":"#A3DDAD"},"geometry":{"type":"Point","coordinates":[15.41565100432401,47.08898817265727],"bbox":[15.41565100432401,47.08898817265727,15.41565100432401,47.08898817265727]}},{"type":"Feature","properties":{"nummer":6757,"baumbezeichnung_botanisch":"Acer pseudoplatanus","baumbezeichnung_deutsch":"Bergahorn","baumtyp":"Laub","bemerkung":null,"pflanzjahr":null,"entnahmejahr":null,"marker-size":"small","marker-symbol":"park2","marker-color":"#A3DDAD"},"geometry":{"type":"Point","coordinates":[15.41560314084808,47.08901357679991],"bbox":[15.41560314084808,47.08901357679991,15.41560314084808,47.08901357679991]}},{"type":"Feature","properties":{"nummer":30690,"baumbezeichnung_botanisch":"Salix alba 'Tristis'","baumbezeichnung_deutsch":"Trauerweide","baumtyp":"Laub","bemerkung":null,"pflanzjahr":null,"entnahmejahr":null,"marker-size":"small","marker-symbol":"park2","marker-color":"#A3DDAD"},"geometry":{"type":"Point","coordinates":[15.4153054147828,47.08888376814584],"bbox":[15.4153054147828,47.08888376814584,15.4153054147828,47.08888376814584]}},{"type":"Feature","properties":{"nummer":30691,"baumbezeichnung_botanisch":"Salix alba 'Tristis'","baumbezeichnung_deutsch":"Trauerweide","baumtyp":"Laub","bemerkung":null,"pflanzjahr":null,"entnahmejahr":null,"marker-size":"small","marker-symbol":"park2","marker-color":"#A3DDAD"},"geometry":{"type":"Point","coordinates":[15.41544840809218,47.08887658747844],"bbox":[15.41544840809218,47.08887658747844,15.41544840809218,47.08887658747844]}},{"type":"Feature","properties":{"nummer":13032,"baumbezeichnung_botanisch":"Aesculus hippocastanum","baumbezeichnung_deutsch":"Gemeine Roßkastanie","baumtyp":"Laub","bemerkung":null,"pflanzjahr":null,"entnahmejahr":null,"marker-size":"small","marker-symbol":"park2","marker-color":"#A3DDAD"},"geometry":{"type":"Point","coordinates":[15.41523539277602,47.08926052032116],"bbox":[15.41523539277602,47.08926052032116,15.41523539277602,47.08926052032116]}},{"type":"Feature","properties":{"nummer":29411,"baumbezeichnung_botanisch":"Populus nigra 'Italica'","baumbezeichnung_deutsch":"Säulenpappel","baumtyp":"Laub","bemerkung":null,"pflanzjahr":null,"entnahmejahr":null,"marker-size":"small","marker-symbol":"park2","marker-color":"#A3DDAD"},"geometry":{"type":"Point","coordinates":[15.41580793049588,47.08887695053274],"bbox":[15.41580793049588,47.08887695053274,15.41580793049588,47.08887695053274]}},{"type":"Feature","properties":{"nummer":11484,"baumbezeichnung_botanisch":"Populus nigra 'Italica'","baumbezeichnung_deutsch":"Säulenpappel","baumtyp":"Laub","bemerkung":null,"pflanzjahr":null,"entnahmejahr":null,"marker-size":"small","marker-symbol":"park2","marker-color":"#A3DDAD"},"geometry":{"type":"Point","coordinates":[15.41577020723153,47.08889025601236],"bbox":[15.41577020723153,47.08889025601236,15.41577020723153,47.08889025601236]}},{"type":"Feature","properties":{"nummer":14320,"baumbezeichnung_botanisch":"Taxodium distichum","baumbezeichnung_deutsch":"Sumpfzypresse","baumtyp":"Nadel","bemerkung":null,"pflanzjahr":null,"entnahmejahr":null,"marker-size":"small","marker-symbol":"park","marker-color":"#3BB451"},"geometry":{"type":"Point","coordinates":[15.4157306402941,47.08889048042609],"bbox":[15.4157306402941,47.08889048042609,15.4157306402941,47.08889048042609]}},{"type":"Feature","properties":{"nummer":6042,"baumbezeichnung_botanisch":"Pinus wallichiana","baumbezeichnung_deutsch":"Tränen - Kiefer","baumtyp":"Nadel","bemerkung":null,"pflanzjahr":null,"entnahmejahr":null,"marker-size":"small","marker-symbol":"park","marker-color":"#3BB451"},"geometry":{"type":"Point","coordinates":[15.41566519904569,47.08893405998001],"bbox":[15.41566519904569,47.08893405998001,15.41566519904569,47.08893405998001]}},{"type":"Feature","properties":{"nummer":14026,"baumbezeichnung_botanisch":"Acer pseudoplatanus","baumbezeichnung_deutsch":"Bergahorn","baumtyp":"Laub","bemerkung":null,"pflanzjahr":null,"entnahmejahr":null,"marker-size":"small","marker-symbol":"park2","marker-color":"#A3DDAD"},"geometry":{"type":"Point","coordinates":[15.41561460105955,47.08898058505648],"bbox":[15.41561460105955,47.08898058505648,15.41561460105955,47.08898058505648]}},{"type":"Feature","properties":{"nummer":19257,"baumbezeichnung_botanisch":"Tilia cordata","baumbezeichnung_deutsch":"Winterlinde","baumtyp":"Laub","bemerkung":null,"pflanzjahr":null,"entnahmejahr":null,"marker-size":"small","marker-symbol":"park2","marker-color":"#A3DDAD"},"geometry":{"type":"Point","coordinates":[15.41540691152955,47.08912035752416],"bbox":[15.41540691152955,47.08912035752416,15.41540691152955,47.08912035752416]}},{"type":"Feature","properties":{"nummer":9843,"baumbezeichnung_botanisch":"Tilia cordata","baumbezeichnung_deutsch":"Winterlinde","baumtyp":"Laub","bemerkung":null,"pflanzjahr":null,"entnahmejahr":null,"marker-size":"small","marker-symbol":"park2","marker-color":"#A3DDAD"},"geometry":{"type":"Point","coordinates":[15.41534284837852,47.08913659846846],"bbox":[15.41534284837852,47.08913659846846,15.41534284837852,47.08913659846846]}},{"type":"Feature","properties":{"nummer":56559,"baumbezeichnung_botanisch":"Acer ginnala","baumbezeichnung_deutsch":"Feuerahorn","baumtyp":"Laub","bemerkung":null,"pflanzjahr":"2012","entnahmejahr":null,"marker-size":"small","marker-symbol":"park2","marker-color":"#A3DDAD"},"geometry":{"type":"Point","coordinates":[15.41645772552983,47.08970335458191],"bbox":[15.41645772552983,47.08970335458191,15.41645772552983,47.08970335458191]}}]}