{"type":"FeatureCollection","features":[{"type":"Feature","properties":{"nummer":24992,"baumbezeichnung_botanisch":"Crataegus laevigata","baumbezeichnung_deutsch":"Zweigriffeliger Weißdorn","baumtyp":"Laub","bemerkung":null,"pflanzjahr":null,"entnahmejahr":null,"marker-size":"small","marker-symbol":"park2","marker-color":"#A3DDAD"},"geometry":{"type":"Point","coordinates":[15.44569245696118,47.05140299357144],"bbox":[15.44569245696118,47.05140299357144,15.44569245696118,47.05140299357144]}},{"type":"Feature","properties":{"nummer":21006,"baumbezeichnung_botanisch":"Aesculus x carnea","baumbezeichnung_deutsch":"Rotblühende Roßkastanie","baumtyp":"Laub","bemerkung":null,"pflanzjahr":"1988","entnahmejahr":null,"marker-size":"small","marker-symbol":"park2","marker-color":"#A3DDAD"},"geometry":{"type":"Point","coordinates":[15.44551798199757,47.05053701217868],"bbox":[15.44551798199757,47.05053701217868,15.44551798199757,47.05053701217868]}},{"type":"Feature","properties":{"nummer":4078,"baumbezeichnung_botanisch":"Aesculus x carnea","baumbezeichnung_deutsch":"Rotblühende Roßkastanie","baumtyp":"Laub","bemerkung":null,"pflanzjahr":"1988","entnahmejahr":null,"marker-size":"small","marker-symbol":"park2","marker-color":"#A3DDAD"},"geometry":{"type":"Point","coordinates":[15.4454270591462,47.05064108915603],"bbox":[15.4454270591462,47.05064108915603,15.4454270591462,47.05064108915603]}},{"type":"Feature","properties":{"nummer":4077,"baumbezeichnung_botanisch":"Aesculus x carnea","baumbezeichnung_deutsch":"Rotblühende Roßkastanie","baumtyp":"Laub","bemerkung":null,"pflanzjahr":"1988","entnahmejahr":null,"marker-size":"small","marker-symbol":"park2","marker-color":"#A3DDAD"},"geometry":{"type":"Point","coordinates":[15.44535178272943,47.05072943837065],"bbox":[15.44535178272943,47.05072943837065,15.44535178272943,47.05072943837065]}},{"type":"Feature","properties":{"nummer":8092,"baumbezeichnung_botanisch":"Aesculus x carnea","baumbezeichnung_deutsch":"Rotblühende Roßkastanie","baumtyp":"Laub","bemerkung":null,"pflanzjahr":"1988","entnahmejahr":null,"marker-size":"small","marker-symbol":"park2","marker-color":"#A3DDAD"},"geometry":{"type":"Point","coordinates":[15.44527878309113,47.05081540354993],"bbox":[15.44527878309113,47.05081540354993,15.44527878309113,47.05081540354993]}},{"type":"Feature","properties":{"nummer":21982,"baumbezeichnung_botanisch":"Aesculus x carnea","baumbezeichnung_deutsch":"Rotblühende Roßkastanie","baumtyp":"Laub","bemerkung":null,"pflanzjahr":"1988","entnahmejahr":null,"marker-size":"small","marker-symbol":"park2","marker-color":"#A3DDAD"},"geometry":{"type":"Point","coordinates":[15.44518768856217,47.05092340986563],"bbox":[15.44518768856217,47.05092340986563,15.44518768856217,47.05092340986563]}},{"type":"Feature","properties":{"nummer":4076,"baumbezeichnung_botanisch":"Aesculus x carnea","baumbezeichnung_deutsch":"Rotblühende Roßkastanie","baumtyp":"Laub","bemerkung":null,"pflanzjahr":"1988","entnahmejahr":null,"marker-size":"small","marker-symbol":"park2","marker-color":"#A3DDAD"},"geometry":{"type":"Point","coordinates":[15.4451009648755,47.05102656576698],"bbox":[15.4451009648755,47.05102656576698,15.4451009648755,47.05102656576698]}},{"type":"Feature","properties":{"nummer":8928,"baumbezeichnung_botanisch":"Aesculus hippocastanum","baumbezeichnung_deutsch":"Gemeine Roßkastanie","baumtyp":"Laub","bemerkung":null,"pflanzjahr":null,"entnahmejahr":null,"marker-size":"small","marker-symbol":"park2","marker-color":"#A3DDAD"},"geometry":{"type":"Point","coordinates":[15.44470086876003,47.05129555424553],"bbox":[15.44470086876003,47.05129555424553,15.44470086876003,47.05129555424553]}},{"type":"Feature","properties":{"nummer":25321,"baumbezeichnung_botanisch":"Aesculus hippocastanum","baumbezeichnung_deutsch":"Gemeine Roßkastanie","baumtyp":"Laub","bemerkung":null,"pflanzjahr":null,"entnahmejahr":null,"marker-size":"small","marker-symbol":"park2","marker-color":"#A3DDAD"},"geometry":{"type":"Point","coordinates":[15.44462089198533,47.05139020794107],"bbox":[15.44462089198533,47.05139020794107,15.44462089198533,47.05139020794107]}},{"type":"Feature","properties":{"nummer":27474,"baumbezeichnung_botanisch":"Aesculus hippocastanum","baumbezeichnung_deutsch":"Gemeine Roßkastanie","baumtyp":"Laub","bemerkung":null,"pflanzjahr":"2001","entnahmejahr":null,"marker-size":"small","marker-symbol":"park2","marker-color":"#A3DDAD"},"geometry":{"type":"Point","coordinates":[15.44478933106085,47.05119459979736],"bbox":[15.44478933106085,47.05119459979736,15.44478933106085,47.05119459979736]}},{"type":"Feature","properties":{"nummer":13617,"baumbezeichnung_botanisch":"Populus nigra","baumbezeichnung_deutsch":"Schwarzpappel","baumtyp":"Laub","bemerkung":null,"pflanzjahr":null,"entnahmejahr":null,"marker-size":"small","marker-symbol":"park2","marker-color":"#A3DDAD"},"geometry":{"type":"Point","coordinates":[15.44129637524201,47.05056737846068],"bbox":[15.44129637524201,47.05056737846068,15.44129637524201,47.05056737846068]}},{"type":"Feature","properties":{"nummer":13476,"baumbezeichnung_botanisch":"Tilia sp.","baumbezeichnung_deutsch":"Linde","baumtyp":"Laub","bemerkung":null,"pflanzjahr":null,"entnahmejahr":null,"marker-size":"small","marker-symbol":"park2","marker-color":"#A3DDAD"},"geometry":{"type":"Point","coordinates":[15.44136112112649,47.05047756886779],"bbox":[15.44136112112649,47.05047756886779,15.44136112112649,47.05047756886779]}},{"type":"Feature","properties":{"nummer":21805,"baumbezeichnung_botanisch":"Acer platanoides","baumbezeichnung_deutsch":"Spitzahorn","baumtyp":"Laub","bemerkung":null,"pflanzjahr":null,"entnahmejahr":null,"marker-size":"small","marker-symbol":"park2","marker-color":"#A3DDAD"},"geometry":{"type":"Point","coordinates":[15.44142363650887,47.05036648723391],"bbox":[15.44142363650887,47.05036648723391,15.44142363650887,47.05036648723391]}},{"type":"Feature","properties":{"nummer":13477,"baumbezeichnung_botanisch":"Salix caprea","baumbezeichnung_deutsch":"Salweide","baumtyp":"Laub","bemerkung":null,"pflanzjahr":null,"entnahmejahr":null,"marker-size":"small","marker-symbol":"park2","marker-color":"#A3DDAD"},"geometry":{"type":"Point","coordinates":[15.44145984405713,47.05026300958898],"bbox":[15.44145984405713,47.05026300958898,15.44145984405713,47.05026300958898]}},{"type":"Feature","properties":{"nummer":4750,"baumbezeichnung_botanisch":"Corylus colurna","baumbezeichnung_deutsch":"Baumhasel","baumtyp":"Laub","bemerkung":null,"pflanzjahr":null,"entnahmejahr":null,"marker-size":"small","marker-symbol":"park2","marker-color":"#A3DDAD"},"geometry":{"type":"Point","coordinates":[15.44149655587038,47.05018390545801],"bbox":[15.44149655587038,47.05018390545801,15.44149655587038,47.05018390545801]}},{"type":"Feature","properties":{"nummer":140,"baumbezeichnung_botanisch":"Corylus colurna","baumbezeichnung_deutsch":"Baumhasel","baumtyp":"Laub","bemerkung":null,"pflanzjahr":null,"entnahmejahr":null,"marker-size":"small","marker-symbol":"park2","marker-color":"#A3DDAD"},"geometry":{"type":"Point","coordinates":[15.44155105524723,47.05007191468152],"bbox":[15.44155105524723,47.05007191468152,15.44155105524723,47.05007191468152]}},{"type":"Feature","properties":{"nummer":9583,"baumbezeichnung_botanisch":"Acer campestre","baumbezeichnung_deutsch":"Feldahorn","baumtyp":"Laub","bemerkung":null,"pflanzjahr":null,"entnahmejahr":null,"marker-size":"small","marker-symbol":"park2","marker-color":"#A3DDAD"},"geometry":{"type":"Point","coordinates":[15.44161626045743,47.04998259246382],"bbox":[15.44161626045743,47.04998259246382,15.44161626045743,47.04998259246382]}},{"type":"Feature","properties":{"nummer":27876,"baumbezeichnung_botanisch":"Aesculus x carnea","baumbezeichnung_deutsch":"Rotblühende Roßkastanie","baumtyp":"Laub","bemerkung":null,"pflanzjahr":"2005","entnahmejahr":null,"marker-size":"small","marker-symbol":"park2","marker-color":"#A3DDAD"},"geometry":{"type":"Point","coordinates":[15.44568507822812,47.05035024165189],"bbox":[15.44568507822812,47.05035024165189,15.44568507822812,47.05035024165189]}}]}