{"type":"FeatureCollection","features":[{"type":"Feature","properties":{"nummer":10858,"baumbezeichnung_botanisch":"Acer pseudoplatanus","baumbezeichnung_deutsch":"Bergahorn","baumtyp":"Laub","bemerkung":null,"pflanzjahr":null,"entnahmejahr":null,"marker-size":"small","marker-symbol":"park2","marker-color":"#A3DDAD"},"geometry":{"type":"Point","coordinates":[15.4113775536847,47.07406750559451],"bbox":[15.4113775536847,47.07406750559451,15.4113775536847,47.07406750559451]}},{"type":"Feature","properties":{"nummer":1126,"baumbezeichnung_botanisch":"Betula pendula","baumbezeichnung_deutsch":"Sandbirke, Weißbirke","baumtyp":"Laub","bemerkung":null,"pflanzjahr":null,"entnahmejahr":null,"marker-size":"small","marker-symbol":"park2","marker-color":"#A3DDAD"},"geometry":{"type":"Point","coordinates":[15.41128719869148,47.07405487631334],"bbox":[15.41128719869148,47.07405487631334,15.41128719869148,47.07405487631334]}},{"type":"Feature","properties":{"nummer":1127,"baumbezeichnung_botanisch":"Aesculus hippocastanum","baumbezeichnung_deutsch":"Gemeine Roßkastanie","baumtyp":"Laub","bemerkung":null,"pflanzjahr":null,"entnahmejahr":null,"marker-size":"small","marker-symbol":"park2","marker-color":"#A3DDAD"},"geometry":{"type":"Point","coordinates":[15.41123434994385,47.07388785229511],"bbox":[15.41123434994385,47.07388785229511,15.41123434994385,47.07388785229511]}},{"type":"Feature","properties":{"nummer":1199,"baumbezeichnung_botanisch":"Aesculus hippocastanum","baumbezeichnung_deutsch":"Gemeine Roßkastanie","baumtyp":"Laub","bemerkung":null,"pflanzjahr":"1997","entnahmejahr":null,"marker-size":"small","marker-symbol":"park2","marker-color":"#A3DDAD"},"geometry":{"type":"Point","coordinates":[15.41114739497196,47.07388000966634],"bbox":[15.41114739497196,47.07388000966634,15.41114739497196,47.07388000966634]}},{"type":"Feature","properties":{"nummer":56547,"baumbezeichnung_botanisch":"Acer ginnala","baumbezeichnung_deutsch":"Feuerahorn","baumtyp":"Laub","bemerkung":null,"pflanzjahr":"2012","entnahmejahr":null,"marker-size":"small","marker-symbol":"park2","marker-color":"#A3DDAD"},"geometry":{"type":"Point","coordinates":[15.41113747842182,47.07400011748883],"bbox":[15.41113747842182,47.07400011748883,15.41113747842182,47.07400011748883]}},{"type":"Feature","properties":{"nummer":56548,"baumbezeichnung_botanisch":"Prunus serrulata","baumbezeichnung_deutsch":"Japanische Kirsche","baumtyp":"Laub","bemerkung":null,"pflanzjahr":"2012","entnahmejahr":null,"marker-size":"small","marker-symbol":"park2","marker-color":"#A3DDAD"},"geometry":{"type":"Point","coordinates":[15.41132718612565,47.07400878907006],"bbox":[15.41132718612565,47.07400878907006,15.41132718612565,47.07400878907006]}},{"type":"Feature","properties":{"nummer":56549,"baumbezeichnung_botanisch":"Celtis sp.","baumbezeichnung_deutsch":"Zürgelbaum","baumtyp":"Laub","bemerkung":null,"pflanzjahr":"2012","entnahmejahr":null,"marker-size":"small","marker-symbol":"park2","marker-color":"#A3DDAD"},"geometry":{"type":"Point","coordinates":[15.41144268618368,47.07397759218534],"bbox":[15.41144268618368,47.07397759218534,15.41144268618368,47.07397759218534]}}]}