{"type":"FeatureCollection","features":[{"type":"Feature","properties":{"nummer":20770,"baumbezeichnung_botanisch":"Populus nigra 'Italica'","baumbezeichnung_deutsch":"Säulenpappel","baumtyp":"Laub","bemerkung":null,"pflanzjahr":null,"entnahmejahr":null,"marker-size":"small","marker-symbol":"park2","marker-color":"#A3DDAD"},"geometry":{"type":"Point","coordinates":[15.43214345399804,47.04913673073585],"bbox":[15.43214345399804,47.04913673073585,15.43214345399804,47.04913673073585]}},{"type":"Feature","properties":{"nummer":4001,"baumbezeichnung_botanisch":"Populus x canescens","baumbezeichnung_deutsch":"Graupappel","baumtyp":"Laub","bemerkung":null,"pflanzjahr":null,"entnahmejahr":null,"marker-size":"small","marker-symbol":"park2","marker-color":"#A3DDAD"},"geometry":{"type":"Point","coordinates":[15.4317506705928,47.04917371064928],"bbox":[15.4317506705928,47.04917371064928,15.4317506705928,47.04917371064928]}},{"type":"Feature","properties":{"nummer":28428,"baumbezeichnung_botanisch":"Betula pendula","baumbezeichnung_deutsch":"Sandbirke, Weißbirke","baumtyp":"Laub","bemerkung":null,"pflanzjahr":null,"entnahmejahr":null,"marker-size":"small","marker-symbol":"park2","marker-color":"#A3DDAD"},"geometry":{"type":"Point","coordinates":[15.43170057405982,47.04903198175786],"bbox":[15.43170057405982,47.04903198175786,15.43170057405982,47.04903198175786]}},{"type":"Feature","properties":{"nummer":5157,"baumbezeichnung_botanisch":"Betula pendula","baumbezeichnung_deutsch":"Sandbirke, Weißbirke","baumtyp":"Laub","bemerkung":null,"pflanzjahr":null,"entnahmejahr":null,"marker-size":"small","marker-symbol":"park2","marker-color":"#A3DDAD"},"geometry":{"type":"Point","coordinates":[15.43174545846412,47.04904841594721],"bbox":[15.43174545846412,47.04904841594721,15.43174545846412,47.04904841594721]}},{"type":"Feature","properties":{"nummer":10196,"baumbezeichnung_botanisch":"Sophora japonica","baumbezeichnung_deutsch":"Schnurbaum","baumtyp":"Laub","bemerkung":null,"pflanzjahr":null,"entnahmejahr":null,"marker-size":"small","marker-symbol":"park2","marker-color":"#A3DDAD"},"geometry":{"type":"Point","coordinates":[15.43215857102986,47.04867591819654],"bbox":[15.43215857102986,47.04867591819654,15.43215857102986,47.04867591819654]}},{"type":"Feature","properties":{"nummer":21,"baumbezeichnung_botanisch":"Pinus sp.","baumbezeichnung_deutsch":"Föhre","baumtyp":"Nadel","bemerkung":null,"pflanzjahr":null,"entnahmejahr":"2011","marker-size":"small","marker-symbol":"park","marker-color":"#B3B3B3"},"geometry":{"type":"Point","coordinates":[15.43224647726708,47.04867911726349],"bbox":[15.43224647726708,47.04867911726349,15.43224647726708,47.04867911726349]}},{"type":"Feature","properties":{"nummer":12540,"baumbezeichnung_botanisch":"Juglans regia","baumbezeichnung_deutsch":"Walnuß","baumtyp":"Laub","bemerkung":null,"pflanzjahr":null,"entnahmejahr":null,"marker-size":"small","marker-symbol":"park2","marker-color":"#A3DDAD"},"geometry":{"type":"Point","coordinates":[15.43217992397799,47.04871366300451],"bbox":[15.43217992397799,47.04871366300451,15.43217992397799,47.04871366300451]}},{"type":"Feature","properties":{"nummer":14223,"baumbezeichnung_botanisch":"Fraxinus excelsior","baumbezeichnung_deutsch":"Esche","baumtyp":"Laub","bemerkung":null,"pflanzjahr":null,"entnahmejahr":null,"marker-size":"small","marker-symbol":"park2","marker-color":"#A3DDAD"},"geometry":{"type":"Point","coordinates":[15.43215800324585,47.04892642080024],"bbox":[15.43215800324585,47.04892642080024,15.43215800324585,47.04892642080024]}},{"type":"Feature","properties":{"nummer":11173,"baumbezeichnung_botanisch":"Fraxinus excelsior","baumbezeichnung_deutsch":"Esche","baumtyp":"Laub","bemerkung":null,"pflanzjahr":null,"entnahmejahr":null,"marker-size":"small","marker-symbol":"park2","marker-color":"#A3DDAD"},"geometry":{"type":"Point","coordinates":[15.43209824645706,47.04877564497634],"bbox":[15.43209824645706,47.04877564497634,15.43209824645706,47.04877564497634]}},{"type":"Feature","properties":{"nummer":7066,"baumbezeichnung_botanisch":"Picea abies","baumbezeichnung_deutsch":"Rotfichte","baumtyp":"Nadel","bemerkung":null,"pflanzjahr":null,"entnahmejahr":null,"marker-size":"small","marker-symbol":"park","marker-color":"#3BB451"},"geometry":{"type":"Point","coordinates":[15.43217770436734,47.04906184953524],"bbox":[15.43217770436734,47.04906184953524,15.43217770436734,47.04906184953524]}},{"type":"Feature","properties":{"nummer":20911,"baumbezeichnung_botanisch":"Malus sp.","baumbezeichnung_deutsch":"Apfelbaum","baumtyp":"Laub","bemerkung":null,"pflanzjahr":null,"entnahmejahr":null,"marker-size":"small","marker-symbol":"park2","marker-color":"#A3DDAD"},"geometry":{"type":"Point","coordinates":[15.43224891463473,47.04875178294709],"bbox":[15.43224891463473,47.04875178294709,15.43224891463473,47.04875178294709]}},{"type":"Feature","properties":{"nummer":28516,"baumbezeichnung_botanisch":"Quercus robur 'Fastigiata'","baumbezeichnung_deutsch":"Säulenstieleiche","baumtyp":"Laub","bemerkung":null,"pflanzjahr":null,"entnahmejahr":null,"marker-size":"small","marker-symbol":"park2","marker-color":"#A3DDAD"},"geometry":{"type":"Point","coordinates":[15.43220383220275,47.04916750115698],"bbox":[15.43220383220275,47.04916750115698,15.43220383220275,47.04916750115698]}},{"type":"Feature","properties":{"nummer":15843,"baumbezeichnung_botanisch":"Prunus domestica","baumbezeichnung_deutsch":"Pflaume","baumtyp":"Laub","bemerkung":null,"pflanzjahr":null,"entnahmejahr":null,"marker-size":"small","marker-symbol":"park2","marker-color":"#A3DDAD"},"geometry":{"type":"Point","coordinates":[15.43225046327742,47.04887704871375],"bbox":[15.43225046327742,47.04887704871375,15.43225046327742,47.04887704871375]}},{"type":"Feature","properties":{"nummer":21355,"baumbezeichnung_botanisch":"Castanea sativa","baumbezeichnung_deutsch":"Eßkastanie","baumtyp":"Laub","bemerkung":null,"pflanzjahr":"1998","entnahmejahr":null,"marker-size":"small","marker-symbol":"park2","marker-color":"#A3DDAD"},"geometry":{"type":"Point","coordinates":[15.43179046830254,47.04877070956657],"bbox":[15.43179046830254,47.04877070956657,15.43179046830254,47.04877070956657]}},{"type":"Feature","properties":{"nummer":9557,"baumbezeichnung_botanisch":"Quercus robur 'Fastigiata'","baumbezeichnung_deutsch":"Säulenstieleiche","baumtyp":"Laub","bemerkung":null,"pflanzjahr":"2012","entnahmejahr":null,"marker-size":"small","marker-symbol":"park2","marker-color":"#A3DDAD"},"geometry":{"type":"Point","coordinates":[15.43219496959035,47.04912461259599],"bbox":[15.43219496959035,47.04912461259599,15.43219496959035,47.04912461259599]}}]}