{"type":"FeatureCollection","features":[{"type":"Feature","properties":{"nummer":10735,"baumbezeichnung_botanisch":"Tilia cordata","baumbezeichnung_deutsch":"Winterlinde","baumtyp":"Laub","altersklassifizierung":"mittel","bemerkung":null,"pflanzjahr":null,"entnahmejahr":null,"baumpatenschaft":null,"objectid":11480},"geometry":{"type":"Point","coordinates":[15.443214539252393,47.0849677484037],"bbox":[15.443214539252393,47.0849677484037,15.443214539252393,47.0849677484037]}},{"type":"Feature","properties":{"nummer":10723,"baumbezeichnung_botanisch":"Acer saccharinum","baumbezeichnung_deutsch":"Zuckerahorn","baumtyp":"Laub","altersklassifizierung":"alt","bemerkung":null,"pflanzjahr":null,"entnahmejahr":null,"baumpatenschaft":null,"objectid":7243},"geometry":{"type":"Point","coordinates":[15.44368097862012,47.08461329505363],"bbox":[15.44368097862012,47.08461329505363,15.44368097862012,47.08461329505363]}},{"type":"Feature","properties":{"nummer":29063,"baumbezeichnung_botanisch":"Fraxinus ornus","baumbezeichnung_deutsch":"Blumenesche","baumtyp":"Laub","altersklassifizierung":"jung","bemerkung":null,"pflanzjahr":"2008","entnahmejahr":null,"baumpatenschaft":null,"objectid":17520},"geometry":{"type":"Point","coordinates":[15.443927609621477,47.08441507016131],"bbox":[15.443927609621477,47.08441507016131,15.443927609621477,47.08441507016131]}},{"type":"Feature","properties":{"nummer":10727,"baumbezeichnung_botanisch":"Tilia x europaea","baumbezeichnung_deutsch":"Zwischenlinde","baumtyp":"Laub","altersklassifizierung":"mittel","bemerkung":null,"pflanzjahr":null,"entnahmejahr":null,"baumpatenschaft":null,"objectid":18608},"geometry":{"type":"Point","coordinates":[15.443484229233782,47.084743722004596],"bbox":[15.443484229233782,47.084743722004596,15.443484229233782,47.084743722004596]}},{"type":"Feature","properties":{"nummer":10724,"baumbezeichnung_botanisch":"Tilia cordata","baumbezeichnung_deutsch":"Winterlinde","baumtyp":"Laub","altersklassifizierung":"mittel","bemerkung":null,"pflanzjahr":null,"entnahmejahr":null,"baumpatenschaft":null,"objectid":15824},"geometry":{"type":"Point","coordinates":[15.443677328620629,47.08464756301103],"bbox":[15.443677328620629,47.08464756301103,15.443677328620629,47.08464756301103]}},{"type":"Feature","properties":{"nummer":10722,"baumbezeichnung_botanisch":"Tilia cordata","baumbezeichnung_deutsch":"Winterlinde","baumtyp":"Laub","altersklassifizierung":"mittel","bemerkung":null,"pflanzjahr":null,"entnahmejahr":null,"baumpatenschaft":null,"objectid":15835},"geometry":{"type":"Point","coordinates":[15.443773033158127,47.08454185034184],"bbox":[15.443773033158127,47.08454185034184,15.443773033158127,47.08454185034184]}},{"type":"Feature","properties":{"nummer":24319,"baumbezeichnung_botanisch":"Acer platanoides","baumbezeichnung_deutsch":"Spitzahorn","baumtyp":"Laub","altersklassifizierung":"jung","bemerkung":null,"pflanzjahr":null,"entnahmejahr":null,"baumpatenschaft":null,"objectid":22074},"geometry":{"type":"Point","coordinates":[15.443803962236002,47.08451612976984],"bbox":[15.443803962236002,47.08451612976984,15.443803962236002,47.08451612976984]}},{"type":"Feature","properties":{"nummer":10729,"baumbezeichnung_botanisch":"Thuja occidentalis","baumbezeichnung_deutsch":"Abendländischer Lebensbaum","baumtyp":"Nadel","altersklassifizierung":"mittel","bemerkung":null,"pflanzjahr":null,"entnahmejahr":null,"baumpatenschaft":null,"objectid":19949},"geometry":{"type":"Point","coordinates":[15.443355220837889,47.084824816158225],"bbox":[15.443355220837889,47.084824816158225,15.443355220837889,47.084824816158225]}},{"type":"Feature","properties":{"nummer":10725,"baumbezeichnung_botanisch":"Tilia cordata","baumbezeichnung_deutsch":"Winterlinde","baumtyp":"Laub","altersklassifizierung":"mittel","bemerkung":null,"pflanzjahr":null,"entnahmejahr":null,"baumpatenschaft":null,"objectid":19254},"geometry":{"type":"Point","coordinates":[15.443630006014441,47.084668741908345],"bbox":[15.443630006014441,47.084668741908345,15.443630006014441,47.084668741908345]}},{"type":"Feature","properties":{"nummer":23551,"baumbezeichnung_botanisch":"Aesculus hippocastanum","baumbezeichnung_deutsch":"Gemeine Roßkastanie","baumtyp":"Laub","altersklassifizierung":"jung","bemerkung":null,"pflanzjahr":"2002","entnahmejahr":null,"baumpatenschaft":null,"objectid":27207},"geometry":{"type":"Point","coordinates":[15.443304022018873,47.08489510746482],"bbox":[15.443304022018873,47.08489510746482,15.443304022018873,47.08489510746482]}},{"type":"Feature","properties":{"nummer":27789,"baumbezeichnung_botanisch":"Acer platanoides 'Schwedleri'","baumbezeichnung_deutsch":"Hellroter Spitzahorn","baumtyp":"Laub","altersklassifizierung":"jung","bemerkung":null,"pflanzjahr":"2008","entnahmejahr":null,"baumpatenschaft":null,"objectid":27209},"geometry":{"type":"Point","coordinates":[15.443476223204003,47.0848200547252],"bbox":[15.443476223204003,47.0848200547252,15.443476223204003,47.0848200547252]}},{"type":"Feature","properties":{"nummer":10736,"baumbezeichnung_botanisch":"Tilia cordata","baumbezeichnung_deutsch":"Winterlinde","baumtyp":"Laub","altersklassifizierung":"mittel","bemerkung":null,"pflanzjahr":null,"entnahmejahr":null,"baumpatenschaft":null,"objectid":25909},"geometry":{"type":"Point","coordinates":[15.44313979026652,47.08502531868573],"bbox":[15.44313979026652,47.08502531868573,15.44313979026652,47.08502531868573]}},{"type":"Feature","properties":{"nummer":10732,"baumbezeichnung_botanisch":"Robinia pseudoacacia","baumbezeichnung_deutsch":"Scheinakazie","baumtyp":"Laub","altersklassifizierung":"mittel","bemerkung":null,"pflanzjahr":null,"entnahmejahr":null,"baumpatenschaft":null,"objectid":25910},"geometry":{"type":"Point","coordinates":[15.443273770803607,47.084915304815944],"bbox":[15.443273770803607,47.084915304815944,15.443273770803607,47.084915304815944]}},{"type":"Feature","properties":{"nummer":10726,"baumbezeichnung_botanisch":"Tilia cordata","baumbezeichnung_deutsch":"Winterlinde","baumtyp":"Laub","altersklassifizierung":"mittel","bemerkung":null,"pflanzjahr":null,"entnahmejahr":null,"baumpatenschaft":null,"objectid":25917},"geometry":{"type":"Point","coordinates":[15.443521278848195,47.08471449706373],"bbox":[15.443521278848195,47.08471449706373,15.443521278848195,47.08471449706373]}}]}