{"type":"FeatureCollection","features":[{"type":"Feature","properties":{"nummer":15277,"baumbezeichnung_botanisch":"Tilia cordata","baumbezeichnung_deutsch":"Winterlinde","baumtyp":"Laub","bemerkung":null,"pflanzjahr":null,"entnahmejahr":null,"marker-size":"small","marker-symbol":"park2","marker-color":"#A3DDAD"},"geometry":{"type":"Point","coordinates":[15.44377303315813,47.08454185034184],"bbox":[15.44377303315813,47.08454185034184,15.44377303315813,47.08454185034184]}},{"type":"Feature","properties":{"nummer":3333,"baumbezeichnung_botanisch":"Acer saccharinum","baumbezeichnung_deutsch":"Zuckerahorn","baumtyp":"Laub","bemerkung":null,"pflanzjahr":null,"entnahmejahr":null,"marker-size":"small","marker-symbol":"park2","marker-color":"#A3DDAD"},"geometry":{"type":"Point","coordinates":[15.44368097862012,47.08461329505363],"bbox":[15.44368097862012,47.08461329505363,15.44368097862012,47.08461329505363]}},{"type":"Feature","properties":{"nummer":16995,"baumbezeichnung_botanisch":"Tilia cordata","baumbezeichnung_deutsch":"Winterlinde","baumtyp":"Laub","bemerkung":null,"pflanzjahr":null,"entnahmejahr":null,"marker-size":"small","marker-symbol":"park2","marker-color":"#A3DDAD"},"geometry":{"type":"Point","coordinates":[15.44367732862063,47.08464756301103],"bbox":[15.44367732862063,47.08464756301103,15.44367732862063,47.08464756301103]}},{"type":"Feature","properties":{"nummer":15043,"baumbezeichnung_botanisch":"Tilia cordata","baumbezeichnung_deutsch":"Winterlinde","baumtyp":"Laub","bemerkung":null,"pflanzjahr":null,"entnahmejahr":null,"marker-size":"small","marker-symbol":"park2","marker-color":"#A3DDAD"},"geometry":{"type":"Point","coordinates":[15.44363000601444,47.08466874190835],"bbox":[15.44363000601444,47.08466874190835,15.44363000601444,47.08466874190835]}},{"type":"Feature","properties":{"nummer":19440,"baumbezeichnung_botanisch":"Tilia cordata","baumbezeichnung_deutsch":"Winterlinde","baumtyp":"Laub","bemerkung":null,"pflanzjahr":null,"entnahmejahr":null,"marker-size":"small","marker-symbol":"park2","marker-color":"#A3DDAD"},"geometry":{"type":"Point","coordinates":[15.4435212788482,47.08471449706373],"bbox":[15.4435212788482,47.08471449706373,15.4435212788482,47.08471449706373]}},{"type":"Feature","properties":{"nummer":16677,"baumbezeichnung_botanisch":"Tilia x europaea","baumbezeichnung_deutsch":"Zwischenlinde","baumtyp":"Laub","bemerkung":null,"pflanzjahr":null,"entnahmejahr":null,"marker-size":"small","marker-symbol":"park2","marker-color":"#A3DDAD"},"geometry":{"type":"Point","coordinates":[15.44348422923378,47.0847437220046],"bbox":[15.44348422923378,47.0847437220046,15.44348422923378,47.0847437220046]}},{"type":"Feature","properties":{"nummer":19663,"baumbezeichnung_botanisch":"Thuja occidentalis","baumbezeichnung_deutsch":"Abendländischer Lebensbaum","baumtyp":"Nadel","bemerkung":null,"pflanzjahr":null,"entnahmejahr":null,"marker-size":"small","marker-symbol":"park","marker-color":"#3BB451"},"geometry":{"type":"Point","coordinates":[15.44335522083789,47.08482481615823],"bbox":[15.44335522083789,47.08482481615823,15.44335522083789,47.08482481615823]}},{"type":"Feature","properties":{"nummer":19431,"baumbezeichnung_botanisch":"Robinia pseudoacacia","baumbezeichnung_deutsch":"Scheinakazie","baumtyp":"Laub","bemerkung":null,"pflanzjahr":null,"entnahmejahr":null,"marker-size":"small","marker-symbol":"park2","marker-color":"#A3DDAD"},"geometry":{"type":"Point","coordinates":[15.44327377080361,47.08491530481594],"bbox":[15.44327377080361,47.08491530481594,15.44327377080361,47.08491530481594]}},{"type":"Feature","properties":{"nummer":24909,"baumbezeichnung_botanisch":"Tilia cordata","baumbezeichnung_deutsch":"Winterlinde","baumtyp":"Laub","bemerkung":null,"pflanzjahr":null,"entnahmejahr":null,"marker-size":"small","marker-symbol":"park2","marker-color":"#A3DDAD"},"geometry":{"type":"Point","coordinates":[15.44321453925239,47.0849677484037],"bbox":[15.44321453925239,47.0849677484037,15.44321453925239,47.0849677484037]}},{"type":"Feature","properties":{"nummer":19430,"baumbezeichnung_botanisch":"Tilia cordata","baumbezeichnung_deutsch":"Winterlinde","baumtyp":"Laub","bemerkung":null,"pflanzjahr":null,"entnahmejahr":null,"marker-size":"small","marker-symbol":"park2","marker-color":"#A3DDAD"},"geometry":{"type":"Point","coordinates":[15.44313979026652,47.08502531868573],"bbox":[15.44313979026652,47.08502531868573,15.44313979026652,47.08502531868573]}},{"type":"Feature","properties":{"nummer":27067,"baumbezeichnung_botanisch":"Fraxinus ornus","baumbezeichnung_deutsch":"Blumenesche","baumtyp":"Laub","bemerkung":null,"pflanzjahr":"2008","entnahmejahr":null,"marker-size":"small","marker-symbol":"park2","marker-color":"#A3DDAD"},"geometry":{"type":"Point","coordinates":[15.44392760962148,47.08441507016131],"bbox":[15.44392760962148,47.08441507016131,15.44392760962148,47.08441507016131]}},{"type":"Feature","properties":{"nummer":7813,"baumbezeichnung_botanisch":"Acer platanoides","baumbezeichnung_deutsch":"Spitzahorn","baumtyp":"Laub","bemerkung":null,"pflanzjahr":null,"entnahmejahr":null,"marker-size":"small","marker-symbol":"park2","marker-color":"#A3DDAD"},"geometry":{"type":"Point","coordinates":[15.443803962236,47.08451612976984],"bbox":[15.443803962236,47.08451612976984,15.443803962236,47.08451612976984]}},{"type":"Feature","properties":{"nummer":18583,"baumbezeichnung_botanisch":"Acer platanoides 'Schwedleri'","baumbezeichnung_deutsch":"Hellroter Spitzahorn","baumtyp":"Laub","bemerkung":null,"pflanzjahr":"2008","entnahmejahr":null,"marker-size":"small","marker-symbol":"park2","marker-color":"#A3DDAD"},"geometry":{"type":"Point","coordinates":[15.443476223204,47.0848200547252],"bbox":[15.443476223204,47.0848200547252,15.443476223204,47.0848200547252]}},{"type":"Feature","properties":{"nummer":19432,"baumbezeichnung_botanisch":"Aesculus hippocastanum","baumbezeichnung_deutsch":"Gemeine Roßkastanie","baumtyp":"Laub","bemerkung":null,"pflanzjahr":"2002","entnahmejahr":null,"marker-size":"small","marker-symbol":"park2","marker-color":"#A3DDAD"},"geometry":{"type":"Point","coordinates":[15.44330402201887,47.08489510746482],"bbox":[15.44330402201887,47.08489510746482,15.44330402201887,47.08489510746482]}}]}