{"type":"FeatureCollection","features":[{"type":"Feature","properties":{"nummer":17250,"baumbezeichnung_botanisch":"Malus sp.","baumbezeichnung_deutsch":"Apfelbaum","baumtyp":"Laub","bemerkung":null,"pflanzjahr":"2005","entnahmejahr":null,"marker-size":"small","marker-symbol":"park2","marker-color":"#A3DDAD"},"geometry":{"type":"Point","coordinates":[15.41492730470844,47.08904948015938],"bbox":[15.41492730470844,47.08904948015938,15.41492730470844,47.08904948015938]}},{"type":"Feature","properties":{"nummer":27650,"baumbezeichnung_botanisch":"Prunus sp.","baumbezeichnung_deutsch":"Kirsche","baumtyp":"Laub","bemerkung":null,"pflanzjahr":"2005","entnahmejahr":null,"marker-size":"small","marker-symbol":"park2","marker-color":"#A3DDAD"},"geometry":{"type":"Point","coordinates":[15.41506842747727,47.08950647268961],"bbox":[15.41506842747727,47.08950647268961,15.41506842747727,47.08950647268961]}},{"type":"Feature","properties":{"nummer":17513,"baumbezeichnung_botanisch":"Pinus wallichiana","baumbezeichnung_deutsch":"Tränen - Kiefer","baumtyp":"Nadel","bemerkung":null,"pflanzjahr":"2008","entnahmejahr":null,"marker-size":"small","marker-symbol":"park","marker-color":"#3BB451"},"geometry":{"type":"Point","coordinates":[15.4145693060799,47.0894690235649],"bbox":[15.4145693060799,47.0894690235649,15.4145693060799,47.0894690235649]}},{"type":"Feature","properties":{"nummer":29264,"baumbezeichnung_botanisch":"Thuja occidentalis","baumbezeichnung_deutsch":"Abendländischer Lebensbaum","baumtyp":"Nadel","bemerkung":null,"pflanzjahr":null,"entnahmejahr":null,"marker-size":"small","marker-symbol":"park","marker-color":"#3BB451"},"geometry":{"type":"Point","coordinates":[15.41511573927052,47.08921854778549],"bbox":[15.41511573927052,47.08921854778549,15.41511573927052,47.08921854778549]}},{"type":"Feature","properties":{"nummer":368,"baumbezeichnung_botanisch":"Prunus serrulata 'Kanzan'","baumbezeichnung_deutsch":"Japanische Blütenkirsche","baumtyp":"Laub","bemerkung":null,"pflanzjahr":null,"entnahmejahr":null,"marker-size":"small","marker-symbol":"park2","marker-color":"#A3DDAD"},"geometry":{"type":"Point","coordinates":[15.41497884073829,47.08919063782899],"bbox":[15.41497884073829,47.08919063782899,15.41497884073829,47.08919063782899]}},{"type":"Feature","properties":{"nummer":17247,"baumbezeichnung_botanisch":"Betula pendula","baumbezeichnung_deutsch":"Sandbirke, Weißbirke","baumtyp":"Laub","bemerkung":null,"pflanzjahr":null,"entnahmejahr":null,"marker-size":"small","marker-symbol":"park2","marker-color":"#A3DDAD"},"geometry":{"type":"Point","coordinates":[15.41484223125094,47.08914597582026],"bbox":[15.41484223125094,47.08914597582026,15.41484223125094,47.08914597582026]}},{"type":"Feature","properties":{"nummer":12800,"baumbezeichnung_botanisch":"Betula pendula","baumbezeichnung_deutsch":"Sandbirke, Weißbirke","baumtyp":"Laub","bemerkung":null,"pflanzjahr":null,"entnahmejahr":null,"marker-size":"small","marker-symbol":"park2","marker-color":"#A3DDAD"},"geometry":{"type":"Point","coordinates":[15.41486751112238,47.08910261607122],"bbox":[15.41486751112238,47.08910261607122,15.41486751112238,47.08910261607122]}},{"type":"Feature","properties":{"nummer":19234,"baumbezeichnung_botanisch":"Betula pendula","baumbezeichnung_deutsch":"Sandbirke, Weißbirke","baumtyp":"Laub","bemerkung":null,"pflanzjahr":null,"entnahmejahr":null,"marker-size":"small","marker-symbol":"park2","marker-color":"#A3DDAD"},"geometry":{"type":"Point","coordinates":[15.41471035383566,47.08911140460943],"bbox":[15.41471035383566,47.08911140460943,15.41471035383566,47.08911140460943]}},{"type":"Feature","properties":{"nummer":20280,"baumbezeichnung_botanisch":"Alnus glutinosa","baumbezeichnung_deutsch":"Schwarzerle","baumtyp":"Laub","bemerkung":null,"pflanzjahr":null,"entnahmejahr":null,"marker-size":"small","marker-symbol":"park2","marker-color":"#A3DDAD"},"geometry":{"type":"Point","coordinates":[15.41466002364061,47.08918472232877],"bbox":[15.41466002364061,47.08918472232877,15.41466002364061,47.08918472232877]}},{"type":"Feature","properties":{"nummer":24500,"baumbezeichnung_botanisch":"Alnus glutinosa","baumbezeichnung_deutsch":"Schwarzerle","baumtyp":"Laub","bemerkung":null,"pflanzjahr":null,"entnahmejahr":null,"marker-size":"small","marker-symbol":"park2","marker-color":"#A3DDAD"},"geometry":{"type":"Point","coordinates":[15.41462487530795,47.08923135418724],"bbox":[15.41462487530795,47.08923135418724,15.41462487530795,47.08923135418724]}},{"type":"Feature","properties":{"nummer":22236,"baumbezeichnung_botanisch":"Ulmus glabra","baumbezeichnung_deutsch":"Bergulme","baumtyp":"Laub","bemerkung":null,"pflanzjahr":null,"entnahmejahr":null,"marker-size":"small","marker-symbol":"park2","marker-color":"#A3DDAD"},"geometry":{"type":"Point","coordinates":[15.41458493598574,47.08927124435757],"bbox":[15.41458493598574,47.08927124435757,15.41458493598574,47.08927124435757]}},{"type":"Feature","properties":{"nummer":6802,"baumbezeichnung_botanisch":"Alnus glutinosa","baumbezeichnung_deutsch":"Schwarzerle","baumtyp":"Laub","bemerkung":null,"pflanzjahr":null,"entnahmejahr":null,"marker-size":"small","marker-symbol":"park2","marker-color":"#A3DDAD"},"geometry":{"type":"Point","coordinates":[15.41457471961021,47.08929461948468],"bbox":[15.41457471961021,47.08929461948468,15.41457471961021,47.08929461948468]}},{"type":"Feature","properties":{"nummer":7291,"baumbezeichnung_botanisch":"Alnus glutinosa","baumbezeichnung_deutsch":"Schwarzerle","baumtyp":"Laub","bemerkung":null,"pflanzjahr":null,"entnahmejahr":null,"marker-size":"small","marker-symbol":"park2","marker-color":"#A3DDAD"},"geometry":{"type":"Point","coordinates":[15.41454972841749,47.08932122637846],"bbox":[15.41454972841749,47.08932122637846,15.41454972841749,47.08932122637846]}},{"type":"Feature","properties":{"nummer":11075,"baumbezeichnung_botanisch":"Fraxinus excelsior","baumbezeichnung_deutsch":"Esche","baumtyp":"Laub","bemerkung":null,"pflanzjahr":null,"entnahmejahr":null,"marker-size":"small","marker-symbol":"park2","marker-color":"#A3DDAD"},"geometry":{"type":"Point","coordinates":[15.41453443337737,47.08935461352029],"bbox":[15.41453443337737,47.08935461352029,15.41453443337737,47.08935461352029]}},{"type":"Feature","properties":{"nummer":12246,"baumbezeichnung_botanisch":"Sophora japonica","baumbezeichnung_deutsch":"Schnurbaum","baumtyp":"Laub","bemerkung":null,"pflanzjahr":null,"entnahmejahr":null,"marker-size":"small","marker-symbol":"park2","marker-color":"#A3DDAD"},"geometry":{"type":"Point","coordinates":[15.41477995263025,47.08934318548383],"bbox":[15.41477995263025,47.08934318548383,15.41477995263025,47.08934318548383]}},{"type":"Feature","properties":{"nummer":32322,"baumbezeichnung_botanisch":"Tilia cordata","baumbezeichnung_deutsch":"Winterlinde","baumtyp":"Laub","bemerkung":null,"pflanzjahr":null,"entnahmejahr":null,"marker-size":"small","marker-symbol":"park2","marker-color":"#A3DDAD"},"geometry":{"type":"Point","coordinates":[15.41454319644011,47.08942212455875],"bbox":[15.41454319644011,47.08942212455875,15.41454319644011,47.08942212455875]}},{"type":"Feature","properties":{"nummer":369,"baumbezeichnung_botanisch":"Malus 'Kulturapfel'","baumbezeichnung_deutsch":"Apfelbaum","baumtyp":"Laub","bemerkung":null,"pflanzjahr":null,"entnahmejahr":null,"marker-size":"small","marker-symbol":"park2","marker-color":"#A3DDAD"},"geometry":{"type":"Point","coordinates":[15.4146501894698,47.08954769582343],"bbox":[15.4146501894698,47.08954769582343,15.4146501894698,47.08954769582343]}},{"type":"Feature","properties":{"nummer":23321,"baumbezeichnung_botanisch":"Malus 'Kulturapfel'","baumbezeichnung_deutsch":"Apfelbaum","baumtyp":"Laub","bemerkung":null,"pflanzjahr":null,"entnahmejahr":null,"marker-size":"small","marker-symbol":"park2","marker-color":"#A3DDAD"},"geometry":{"type":"Point","coordinates":[15.41442665736398,47.0894773536797],"bbox":[15.41442665736398,47.0894773536797,15.41442665736398,47.0894773536797]}},{"type":"Feature","properties":{"nummer":8552,"baumbezeichnung_botanisch":"Juglans regia","baumbezeichnung_deutsch":"Walnuß","baumtyp":"Laub","bemerkung":null,"pflanzjahr":null,"entnahmejahr":null,"marker-size":"small","marker-symbol":"park2","marker-color":"#A3DDAD"},"geometry":{"type":"Point","coordinates":[15.41437875015441,47.08950080592744],"bbox":[15.41437875015441,47.08950080592744,15.41437875015441,47.08950080592744]}},{"type":"Feature","properties":{"nummer":26619,"baumbezeichnung_botanisch":"Salix alba 'Tristis'","baumbezeichnung_deutsch":"Trauerweide","baumtyp":"Laub","bemerkung":null,"pflanzjahr":null,"entnahmejahr":null,"marker-size":"small","marker-symbol":"park2","marker-color":"#A3DDAD"},"geometry":{"type":"Point","coordinates":[15.41421445051153,47.08970054475505],"bbox":[15.41421445051153,47.08970054475505,15.41421445051153,47.08970054475505]}},{"type":"Feature","properties":{"nummer":447,"baumbezeichnung_botanisch":"Pyrus communis","baumbezeichnung_deutsch":"Gemeine Birne","baumtyp":"Laub","bemerkung":null,"pflanzjahr":null,"entnahmejahr":null,"marker-size":"small","marker-symbol":"park2","marker-color":"#A3DDAD"},"geometry":{"type":"Point","coordinates":[15.41446823023821,47.08971142418692],"bbox":[15.41446823023821,47.08971142418692,15.41446823023821,47.08971142418692]}},{"type":"Feature","properties":{"nummer":372,"baumbezeichnung_botanisch":"Prunus avium","baumbezeichnung_deutsch":"Vogelkirsche","baumtyp":"Laub","bemerkung":null,"pflanzjahr":null,"entnahmejahr":null,"marker-size":"small","marker-symbol":"park2","marker-color":"#A3DDAD"},"geometry":{"type":"Point","coordinates":[15.41469619962006,47.08961207852374],"bbox":[15.41469619962006,47.08961207852374,15.41469619962006,47.08961207852374]}},{"type":"Feature","properties":{"nummer":4435,"baumbezeichnung_botanisch":"Prunus avium","baumbezeichnung_deutsch":"Vogelkirsche","baumtyp":"Laub","bemerkung":null,"pflanzjahr":null,"entnahmejahr":null,"marker-size":"small","marker-symbol":"park2","marker-color":"#A3DDAD"},"geometry":{"type":"Point","coordinates":[15.41476791162418,47.08966616084865],"bbox":[15.41476791162418,47.08966616084865,15.41476791162418,47.08966616084865]}},{"type":"Feature","properties":{"nummer":6989,"baumbezeichnung_botanisch":"Gleditsia triacanthos","baumbezeichnung_deutsch":"Christusdorn","baumtyp":"Laub","bemerkung":null,"pflanzjahr":null,"entnahmejahr":null,"marker-size":"small","marker-symbol":"park2","marker-color":"#A3DDAD"},"geometry":{"type":"Point","coordinates":[15.41481043332772,47.08899827465591],"bbox":[15.41481043332772,47.08899827465591,15.41481043332772,47.08899827465591]}},{"type":"Feature","properties":{"nummer":17514,"baumbezeichnung_botanisch":"Fraxinus excelsior","baumbezeichnung_deutsch":"Esche","baumtyp":"Laub","bemerkung":null,"pflanzjahr":null,"entnahmejahr":null,"marker-size":"small","marker-symbol":"park2","marker-color":"#A3DDAD"},"geometry":{"type":"Point","coordinates":[15.4148555099251,47.08894502128194],"bbox":[15.4148555099251,47.08894502128194,15.4148555099251,47.08894502128194]}},{"type":"Feature","properties":{"nummer":24473,"baumbezeichnung_botanisch":"Aesculus hippocastanum","baumbezeichnung_deutsch":"Gemeine Roßkastanie","baumtyp":"Laub","bemerkung":null,"pflanzjahr":null,"entnahmejahr":null,"marker-size":"small","marker-symbol":"park2","marker-color":"#A3DDAD"},"geometry":{"type":"Point","coordinates":[15.41486467141016,47.08971335291549],"bbox":[15.41486467141016,47.08971335291549,15.41486467141016,47.08971335291549]}},{"type":"Feature","properties":{"nummer":13033,"baumbezeichnung_botanisch":"Pyrus 'Gute Luise'","baumbezeichnung_deutsch":"Fruchtbirne","baumtyp":"Laub","bemerkung":null,"pflanzjahr":null,"entnahmejahr":null,"marker-size":"small","marker-symbol":"park2","marker-color":"#A3DDAD"},"geometry":{"type":"Point","coordinates":[15.41464183262761,47.08965078581179],"bbox":[15.41464183262761,47.08965078581179,15.41464183262761,47.08965078581179]}}]}