{"type":"FeatureCollection","features":[{"type":"Feature","properties":{"nummer":20105,"baumbezeichnung_botanisch":"Acer platanoides","baumbezeichnung_deutsch":"Spitzahorn","baumtyp":"Laub","altersklassifizierung":"jung","bemerkung":null,"pflanzjahr":"1997","entnahmejahr":null,"baumpatenschaft":null,"objectid":4707},"geometry":{"type":"Point","coordinates":[15.438272558983575,47.08889086784479],"bbox":[15.438272558983575,47.08889086784479,15.438272558983575,47.08889086784479]}},{"type":"Feature","properties":{"nummer":10761,"baumbezeichnung_botanisch":"Prunus avium","baumbezeichnung_deutsch":"Vogelkirsche","baumtyp":"Laub","altersklassifizierung":"jung","bemerkung":null,"pflanzjahr":null,"entnahmejahr":null,"baumpatenschaft":null,"objectid":12003},"geometry":{"type":"Point","coordinates":[15.43826640887204,47.08886130592269],"bbox":[15.43826640887204,47.08886130592269,15.43826640887204,47.08886130592269]}},{"type":"Feature","properties":{"nummer":10752,"baumbezeichnung_botanisch":"Populus sp.","baumbezeichnung_deutsch":"Pappel","baumtyp":"Laub","altersklassifizierung":"mittel","bemerkung":null,"pflanzjahr":null,"entnahmejahr":null,"baumpatenschaft":null,"objectid":11610},"geometry":{"type":"Point","coordinates":[15.438091126944533,47.08897863852111],"bbox":[15.438091126944533,47.08897863852111,15.438091126944533,47.08897863852111]}},{"type":"Feature","properties":{"nummer":24683,"baumbezeichnung_botanisch":"Acer platanoides","baumbezeichnung_deutsch":"Spitzahorn","baumtyp":"Laub","altersklassifizierung":"jung","bemerkung":null,"pflanzjahr":"2005","entnahmejahr":null,"baumpatenschaft":null,"objectid":10927},"geometry":{"type":"Point","coordinates":[15.437823754203576,47.089315754419914],"bbox":[15.437823754203576,47.089315754419914,15.437823754203576,47.089315754419914]}},{"type":"Feature","properties":{"nummer":10751,"baumbezeichnung_botanisch":"Populus sp.","baumbezeichnung_deutsch":"Pappel","baumtyp":"Laub","altersklassifizierung":"mittel","bemerkung":null,"pflanzjahr":null,"entnahmejahr":null,"baumpatenschaft":null,"objectid":6078},"geometry":{"type":"Point","coordinates":[15.43813366649452,47.088955135173094],"bbox":[15.43813366649452,47.088955135173094,15.43813366649452,47.088955135173094]}},{"type":"Feature","properties":{"nummer":10760,"baumbezeichnung_botanisch":"Ulmus sp.","baumbezeichnung_deutsch":"Ulme","baumtyp":"Laub","altersklassifizierung":"mittel","bemerkung":null,"pflanzjahr":null,"entnahmejahr":null,"baumpatenschaft":null,"objectid":17191},"geometry":{"type":"Point","coordinates":[15.438212925769033,47.088879048531126],"bbox":[15.438212925769033,47.088879048531126,15.438212925769033,47.088879048531126]}},{"type":"Feature","properties":{"nummer":10749,"baumbezeichnung_botanisch":"Populus alba","baumbezeichnung_deutsch":"Weißpappel","baumtyp":"Laub","altersklassifizierung":"mittel","bemerkung":null,"pflanzjahr":null,"entnahmejahr":null,"baumpatenschaft":null,"objectid":17202},"geometry":{"type":"Point","coordinates":[15.438210131657314,47.08890659469604],"bbox":[15.438210131657314,47.08890659469604,15.438210131657314,47.08890659469604]}},{"type":"Feature","properties":{"nummer":20106,"baumbezeichnung_botanisch":"Acer platanoides","baumbezeichnung_deutsch":"Spitzahorn","baumtyp":"Laub","altersklassifizierung":"jung","bemerkung":null,"pflanzjahr":"1997","entnahmejahr":null,"baumpatenschaft":null,"objectid":15238},"geometry":{"type":"Point","coordinates":[15.43833009062023,47.0888300211173],"bbox":[15.43833009062023,47.0888300211173,15.43833009062023,47.0888300211173]}},{"type":"Feature","properties":{"nummer":20104,"baumbezeichnung_botanisch":"Acer platanoides","baumbezeichnung_deutsch":"Spitzahorn","baumtyp":"Laub","altersklassifizierung":"jung","bemerkung":null,"pflanzjahr":"1997","entnahmejahr":null,"baumpatenschaft":null,"objectid":25202},"geometry":{"type":"Point","coordinates":[15.438020617918658,47.08904781263069],"bbox":[15.438020617918658,47.08904781263069,15.438020617918658,47.08904781263069]}},{"type":"Feature","properties":{"Naturdenkmal":true,"Naturdenkmal_Eigentum":"privat","nummer":"Naturdenkmal-113","objectid":"Naturdenkmal-79","baumbezeichnung_deutsch":"Roßkastanie","baumbezeichnung_botanisch":"Ausculus hippocastanum"},"geometry":{"type":"Point","coordinates":[15.437358643262296,47.09017075138327],"bbox":[15.437358643262296,47.09017075138327,15.437358643262296,47.09017075138327]}}]}