{"type":"FeatureCollection","features":[{"type":"Feature","properties":{"nummer":11041,"baumbezeichnung_botanisch":"Salix alba","baumbezeichnung_deutsch":"Silberweide","baumtyp":"Laub","bemerkung":null,"pflanzjahr":null,"entnahmejahr":"2011","marker-size":"small","marker-symbol":"park2","marker-color":"#B3B3B3"},"geometry":{"type":"Point","coordinates":[15.47195562274477,47.06499416383075],"bbox":[15.47195562274477,47.06499416383075,15.47195562274477,47.06499416383075]}},{"type":"Feature","properties":{"nummer":4485,"baumbezeichnung_botanisch":"Acer pseudoplatanus","baumbezeichnung_deutsch":"Bergahorn","baumtyp":"Laub","bemerkung":null,"pflanzjahr":null,"entnahmejahr":null,"marker-size":"small","marker-symbol":"park2","marker-color":"#A3DDAD"},"geometry":{"type":"Point","coordinates":[15.47194788000251,47.06491016407352],"bbox":[15.47194788000251,47.06491016407352,15.47194788000251,47.06491016407352]}},{"type":"Feature","properties":{"nummer":7963,"baumbezeichnung_botanisch":"Salix alba","baumbezeichnung_deutsch":"Silberweide","baumtyp":"Laub","bemerkung":null,"pflanzjahr":null,"entnahmejahr":"2011","marker-size":"small","marker-symbol":"park2","marker-color":"#B3B3B3"},"geometry":{"type":"Point","coordinates":[15.47198553195273,47.06483272428763],"bbox":[15.47198553195273,47.06483272428763,15.47198553195273,47.06483272428763]}},{"type":"Feature","properties":{"nummer":24039,"baumbezeichnung_botanisch":"Pinus silvestris","baumbezeichnung_deutsch":"Rotföhre","baumtyp":"Nadel","bemerkung":null,"pflanzjahr":null,"entnahmejahr":null,"marker-size":"small","marker-symbol":"park","marker-color":"#3BB451"},"geometry":{"type":"Point","coordinates":[15.47187644750362,47.06482568366027],"bbox":[15.47187644750362,47.06482568366027,15.47187644750362,47.06482568366027]}},{"type":"Feature","properties":{"nummer":5300,"baumbezeichnung_botanisch":"Salix caprea","baumbezeichnung_deutsch":"Salweide","baumtyp":"Laub","bemerkung":null,"pflanzjahr":null,"entnahmejahr":null,"marker-size":"small","marker-symbol":"park2","marker-color":"#A3DDAD"},"geometry":{"type":"Point","coordinates":[15.47176212615414,47.06485749819232],"bbox":[15.47176212615414,47.06485749819232,15.47176212615414,47.06485749819232]}},{"type":"Feature","properties":{"nummer":10244,"baumbezeichnung_botanisch":"Salix alba","baumbezeichnung_deutsch":"Silberweide","baumtyp":"Laub","bemerkung":null,"pflanzjahr":null,"entnahmejahr":null,"marker-size":"small","marker-symbol":"park2","marker-color":"#A3DDAD"},"geometry":{"type":"Point","coordinates":[15.47179850642338,47.06486240256328],"bbox":[15.47179850642338,47.06486240256328,15.47179850642338,47.06486240256328]}},{"type":"Feature","properties":{"nummer":5309,"baumbezeichnung_botanisch":"Populus tremula","baumbezeichnung_deutsch":"Zitterpappel","baumtyp":"Laub","bemerkung":null,"pflanzjahr":null,"entnahmejahr":null,"marker-size":"small","marker-symbol":"park2","marker-color":"#A3DDAD"},"geometry":{"type":"Point","coordinates":[15.4718341981676,47.06478009157918],"bbox":[15.4718341981676,47.06478009157918,15.4718341981676,47.06478009157918]}},{"type":"Feature","properties":{"nummer":15065,"baumbezeichnung_botanisch":"Betula pendula","baumbezeichnung_deutsch":"Sandbirke, Weißbirke","baumtyp":"Laub","bemerkung":null,"pflanzjahr":null,"entnahmejahr":null,"marker-size":"small","marker-symbol":"park2","marker-color":"#A3DDAD"},"geometry":{"type":"Point","coordinates":[15.47170472873258,47.06475288194483],"bbox":[15.47170472873258,47.06475288194483,15.47170472873258,47.06475288194483]}},{"type":"Feature","properties":{"nummer":14595,"baumbezeichnung_botanisch":"Prunus avium","baumbezeichnung_deutsch":"Vogelkirsche","baumtyp":"Laub","bemerkung":null,"pflanzjahr":null,"entnahmejahr":null,"marker-size":"small","marker-symbol":"park2","marker-color":"#A3DDAD"},"geometry":{"type":"Point","coordinates":[15.47209493756329,47.06453820126383],"bbox":[15.47209493756329,47.06453820126383,15.47209493756329,47.06453820126383]}}]}