{"type":"FeatureCollection","features":[{"type":"Feature","properties":{"nummer":8805,"baumbezeichnung_botanisch":"Picea abies","baumbezeichnung_deutsch":"Rotfichte","baumtyp":"Nadel","altersklassifizierung":"alt","bemerkung":null,"pflanzjahr":null,"entnahmejahr":null,"baumpatenschaft":null,"objectid":1397},"geometry":{"type":"Point","coordinates":[15.494967524597065,47.06984183368668],"bbox":[15.494967524597065,47.06984183368668,15.494967524597065,47.06984183368668]}},{"type":"Feature","properties":{"nummer":8806,"baumbezeichnung_botanisch":"Robinia pseudoacacia","baumbezeichnung_deutsch":"Scheinakazie","baumtyp":"Laub","altersklassifizierung":"alt","bemerkung":null,"pflanzjahr":null,"entnahmejahr":"2014","baumpatenschaft":null,"objectid":1398},"geometry":{"type":"Point","coordinates":[15.4950268733848,47.069880381776464],"bbox":[15.4950268733848,47.069880381776464,15.4950268733848,47.069880381776464]}},{"type":"Feature","properties":{"nummer":8813,"baumbezeichnung_botanisch":"Carpinus betulus","baumbezeichnung_deutsch":"Hain - oder Weißbuche","baumtyp":"Laub","altersklassifizierung":"alt","bemerkung":null,"pflanzjahr":null,"entnahmejahr":null,"baumpatenschaft":null,"objectid":1399},"geometry":{"type":"Point","coordinates":[15.495247259360283,47.070111590763005],"bbox":[15.495247259360283,47.070111590763005,15.495247259360283,47.070111590763005]}},{"type":"Feature","properties":{"nummer":8827,"baumbezeichnung_botanisch":"Pinus sylvestris","baumbezeichnung_deutsch":"Gemeine Kiefer","baumtyp":"Nadel","altersklassifizierung":"alt","bemerkung":null,"pflanzjahr":null,"entnahmejahr":null,"baumpatenschaft":null,"objectid":1444},"geometry":{"type":"Point","coordinates":[15.49591745944972,47.070047719201604],"bbox":[15.49591745944972,47.070047719201604,15.49591745944972,47.070047719201604]}},{"type":"Feature","properties":{"nummer":9490,"baumbezeichnung_botanisch":"Castanea sativa","baumbezeichnung_deutsch":"Eßkastanie","baumtyp":"Laub","altersklassifizierung":"mittel","bemerkung":null,"pflanzjahr":null,"entnahmejahr":null,"baumpatenschaft":null,"objectid":9685},"geometry":{"type":"Point","coordinates":[15.493564679486388,47.070077069432024],"bbox":[15.493564679486388,47.070077069432024,15.493564679486388,47.070077069432024]}},{"type":"Feature","properties":{"nummer":8810,"baumbezeichnung_botanisch":"Tilia americana","baumbezeichnung_deutsch":"Amerikanische Linde","baumtyp":"Laub","altersklassifizierung":"mittel","bemerkung":null,"pflanzjahr":null,"entnahmejahr":null,"baumpatenschaft":null,"objectid":10580},"geometry":{"type":"Point","coordinates":[15.495098307657395,47.07002389676834],"bbox":[15.495098307657395,47.07002389676834,15.495098307657395,47.07002389676834]}},{"type":"Feature","properties":{"nummer":8802,"baumbezeichnung_botanisch":"Fraxinus excelsior","baumbezeichnung_deutsch":"Esche","baumtyp":"Laub","altersklassifizierung":"alt","bemerkung":null,"pflanzjahr":null,"entnahmejahr":null,"baumpatenschaft":null,"objectid":9287},"geometry":{"type":"Point","coordinates":[15.49498723224053,47.06972274860989],"bbox":[15.49498723224053,47.06972274860989,15.49498723224053,47.06972274860989]}},{"type":"Feature","properties":{"nummer":8801,"baumbezeichnung_botanisch":"Fraxinus excelsior","baumbezeichnung_deutsch":"Esche","baumtyp":"Laub","altersklassifizierung":"jung","bemerkung":null,"pflanzjahr":null,"entnahmejahr":null,"baumpatenschaft":null,"objectid":9415},"geometry":{"type":"Point","coordinates":[15.494926137992506,47.06970109663528],"bbox":[15.494926137992506,47.06970109663528,15.494926137992506,47.06970109663528]}},{"type":"Feature","properties":{"nummer":8828,"baumbezeichnung_botanisch":"Picea abies","baumbezeichnung_deutsch":"Rotfichte","baumtyp":"Nadel","altersklassifizierung":"alt","bemerkung":null,"pflanzjahr":null,"entnahmejahr":null,"baumpatenschaft":null,"objectid":9421},"geometry":{"type":"Point","coordinates":[15.49592757086889,47.07008028182999],"bbox":[15.49592757086889,47.07008028182999,15.49592757086889,47.07008028182999]}},{"type":"Feature","properties":{"nummer":8823,"baumbezeichnung_botanisch":"Prunus serrulata 'Kanzan'","baumbezeichnung_deutsch":"Japanische Blütenkirsche","baumtyp":"Laub","altersklassifizierung":"mittel","bemerkung":null,"pflanzjahr":null,"entnahmejahr":null,"baumpatenschaft":null,"objectid":7975},"geometry":{"type":"Point","coordinates":[15.495465422213558,47.06992186707786],"bbox":[15.495465422213558,47.06992186707786,15.495465422213558,47.06992186707786]}},{"type":"Feature","properties":{"nummer":24697,"baumbezeichnung_botanisch":"Picea abies","baumbezeichnung_deutsch":"Rotfichte","baumtyp":"Nadel","altersklassifizierung":"alt","bemerkung":null,"pflanzjahr":null,"entnahmejahr":null,"baumpatenschaft":null,"objectid":8163},"geometry":{"type":"Point","coordinates":[15.496017874503735,47.07012323652823],"bbox":[15.496017874503735,47.07012323652823,15.496017874503735,47.07012323652823]}},{"type":"Feature","properties":{"nummer":8803,"baumbezeichnung_botanisch":"Pinus nigra","baumbezeichnung_deutsch":"Schwarzkiefer","baumtyp":"Nadel","altersklassifizierung":"alt","bemerkung":null,"pflanzjahr":null,"entnahmejahr":null,"baumpatenschaft":null,"objectid":8166},"geometry":{"type":"Point","coordinates":[15.495175860922457,47.069732605531485],"bbox":[15.495175860922457,47.069732605531485,15.495175860922457,47.069732605531485]}},{"type":"Feature","properties":{"nummer":8818,"baumbezeichnung_botanisch":"Carpinus betulus","baumbezeichnung_deutsch":"Hain - oder Weißbuche","baumtyp":"Laub","altersklassifizierung":"mittel","bemerkung":null,"pflanzjahr":null,"entnahmejahr":null,"baumpatenschaft":null,"objectid":8167},"geometry":{"type":"Point","coordinates":[15.495235878902655,47.06987968411111],"bbox":[15.495235878902655,47.06987968411111,15.495235878902655,47.06987968411111]}},{"type":"Feature","properties":{"nummer":30072,"baumbezeichnung_botanisch":"Malus 'Frucht'","baumbezeichnung_deutsch":"Fruchtapfelbaum","baumtyp":"Laub","altersklassifizierung":"mittel","bemerkung":"durch Schnee- und Eismengen gesamter Kronenbereich gebrochen, Ersatz drzt nicht geplant","pflanzjahr":null,"entnahmejahr":"2014","baumpatenschaft":null,"objectid":7661},"geometry":{"type":"Point","coordinates":[15.49456198515342,47.06974565248863],"bbox":[15.49456198515342,47.06974565248863,15.49456198515342,47.06974565248863]}},{"type":"Feature","properties":{"nummer":30073,"baumbezeichnung_botanisch":"Pyrus calleryana 'Chanticleer'","baumbezeichnung_deutsch":"Chinesische Wildbirne","baumtyp":"Laub","altersklassifizierung":"jung","bemerkung":null,"pflanzjahr":null,"entnahmejahr":null,"baumpatenschaft":null,"objectid":7662},"geometry":{"type":"Point","coordinates":[15.494406737992005,47.069760255587504],"bbox":[15.494406737992005,47.069760255587504,15.494406737992005,47.069760255587504]}},{"type":"Feature","properties":{"nummer":30074,"baumbezeichnung_botanisch":"Carpinus betulus","baumbezeichnung_deutsch":"Hain - oder Weißbuche","baumtyp":"Laub","altersklassifizierung":"mittel","bemerkung":null,"pflanzjahr":null,"entnahmejahr":null,"baumpatenschaft":null,"objectid":7663},"geometry":{"type":"Point","coordinates":[15.494500882295366,47.06963499656696],"bbox":[15.494500882295366,47.06963499656696,15.494500882295366,47.06963499656696]}},{"type":"Feature","properties":{"nummer":30075,"baumbezeichnung_botanisch":"Fraxinus excelsior","baumbezeichnung_deutsch":"Esche","baumtyp":"Laub","altersklassifizierung":"mittel","bemerkung":null,"pflanzjahr":null,"entnahmejahr":null,"baumpatenschaft":null,"objectid":7664},"geometry":{"type":"Point","coordinates":[15.494438089771668,47.06963167192683],"bbox":[15.494438089771668,47.06963167192683,15.494438089771668,47.06963167192683]}},{"type":"Feature","properties":{"nummer":30076,"baumbezeichnung_botanisch":"Carpinus betulus","baumbezeichnung_deutsch":"Hain - oder Weißbuche","baumtyp":"Laub","altersklassifizierung":"mittel","bemerkung":null,"pflanzjahr":null,"entnahmejahr":null,"baumpatenschaft":null,"objectid":7665},"geometry":{"type":"Point","coordinates":[15.494411581426736,47.06958567681922],"bbox":[15.494411581426736,47.06958567681922,15.494411581426736,47.06958567681922]}},{"type":"Feature","properties":{"nummer":30078,"baumbezeichnung_botanisch":"Fraxinus excelsior","baumbezeichnung_deutsch":"Esche","baumtyp":"Laub","altersklassifizierung":"jung","bemerkung":null,"pflanzjahr":null,"entnahmejahr":null,"baumpatenschaft":null,"objectid":7666},"geometry":{"type":"Point","coordinates":[15.49596977302287,47.070007891396045],"bbox":[15.49596977302287,47.070007891396045,15.49596977302287,47.070007891396045]}},{"type":"Feature","properties":{"nummer":30079,"baumbezeichnung_botanisch":"Fraxinus excelsior","baumbezeichnung_deutsch":"Esche","baumtyp":"Laub","altersklassifizierung":"jung","bemerkung":null,"pflanzjahr":null,"entnahmejahr":null,"baumpatenschaft":null,"objectid":7667},"geometry":{"type":"Point","coordinates":[15.495992094148846,47.07005385541911],"bbox":[15.495992094148846,47.07005385541911,15.495992094148846,47.07005385541911]}},{"type":"Feature","properties":{"nummer":30080,"baumbezeichnung_botanisch":"Fraxinus excelsior","baumbezeichnung_deutsch":"Esche","baumtyp":"Laub","altersklassifizierung":"jung","bemerkung":null,"pflanzjahr":null,"entnahmejahr":null,"baumpatenschaft":null,"objectid":7668},"geometry":{"type":"Point","coordinates":[15.496021170780088,47.07006981192686],"bbox":[15.496021170780088,47.07006981192686,15.496021170780088,47.07006981192686]}},{"type":"Feature","properties":{"nummer":26624,"baumbezeichnung_botanisch":"Salix alba 'Tristis'","baumbezeichnung_deutsch":"Trauerweide","baumtyp":"Laub","altersklassifizierung":"jung","bemerkung":null,"pflanzjahr":"2006","entnahmejahr":null,"baumpatenschaft":null,"objectid":6180},"geometry":{"type":"Point","coordinates":[15.495403782781525,47.0699053034738],"bbox":[15.495403782781525,47.0699053034738,15.495403782781525,47.0699053034738]}},{"type":"Feature","properties":{"nummer":8829,"baumbezeichnung_botanisch":"Aesculus hippocastanum","baumbezeichnung_deutsch":"Gemeine Roßkastanie","baumtyp":"Laub","altersklassifizierung":"mittel","bemerkung":null,"pflanzjahr":null,"entnahmejahr":null,"baumpatenschaft":null,"objectid":16284},"geometry":{"type":"Point","coordinates":[15.495999335895227,47.07008488761313],"bbox":[15.495999335895227,47.07008488761313,15.495999335895227,47.07008488761313]}},{"type":"Feature","properties":{"nummer":8804,"baumbezeichnung_botanisch":"Robinia pseudoacacia","baumbezeichnung_deutsch":"Scheinakazie","baumtyp":"Laub","altersklassifizierung":"alt","bemerkung":null,"pflanzjahr":null,"entnahmejahr":"2014","baumpatenschaft":null,"objectid":14344},"geometry":{"type":"Point","coordinates":[15.495181337908626,47.069804986013494],"bbox":[15.495181337908626,47.069804986013494,15.495181337908626,47.069804986013494]}},{"type":"Feature","properties":{"nummer":8820,"baumbezeichnung_botanisch":"Acer campestre","baumbezeichnung_deutsch":"Feldahorn","baumtyp":"Laub","altersklassifizierung":"alt","bemerkung":null,"pflanzjahr":null,"entnahmejahr":null,"baumpatenschaft":null,"objectid":14419},"geometry":{"type":"Point","coordinates":[15.495288043270197,47.0697675044645],"bbox":[15.495288043270197,47.0697675044645,15.495288043270197,47.0697675044645]}},{"type":"Feature","properties":{"nummer":8812,"baumbezeichnung_botanisch":"Larix decidua","baumbezeichnung_deutsch":"Europäische Lärche","baumtyp":"Nadel","altersklassifizierung":"alt","bemerkung":null,"pflanzjahr":null,"entnahmejahr":null,"baumpatenschaft":null,"objectid":23512},"geometry":{"type":"Point","coordinates":[15.495171990177642,47.07002443788231],"bbox":[15.495171990177642,47.07002443788231,15.495171990177642,47.07002443788231]}},{"type":"Feature","properties":{"nummer":8809,"baumbezeichnung_botanisch":"Tilia americana","baumbezeichnung_deutsch":"Amerikanische Linde","baumtyp":"Laub","altersklassifizierung":"mittel","bemerkung":null,"pflanzjahr":null,"entnahmejahr":null,"baumpatenschaft":null,"objectid":22032},"geometry":{"type":"Point","coordinates":[15.4950489951416,47.069973186417776],"bbox":[15.4950489951416,47.069973186417776,15.4950489951416,47.069973186417776]}},{"type":"Feature","properties":{"nummer":8811,"baumbezeichnung_botanisch":"Tilia cordata","baumbezeichnung_deutsch":"Winterlinde","baumtyp":"Laub","altersklassifizierung":"alt","bemerkung":null,"pflanzjahr":null,"entnahmejahr":null,"baumpatenschaft":null,"objectid":22033},"geometry":{"type":"Point","coordinates":[15.495162482699437,47.07006666114578],"bbox":[15.495162482699437,47.07006666114578,15.495162482699437,47.07006666114578]}},{"type":"Feature","properties":{"nummer":9485,"baumbezeichnung_botanisch":"Aesculus hippocastanum","baumbezeichnung_deutsch":"Gemeine Roßkastanie","baumtyp":"Laub","altersklassifizierung":"alt","bemerkung":null,"pflanzjahr":null,"entnahmejahr":null,"baumpatenschaft":null,"objectid":21428},"geometry":{"type":"Point","coordinates":[15.494205244844766,47.0700986023515],"bbox":[15.494205244844766,47.0700986023515,15.494205244844766,47.0700986023515]}},{"type":"Feature","properties":{"nummer":8824,"baumbezeichnung_botanisch":"Platanus x acerifolia","baumbezeichnung_deutsch":"Platane","baumtyp":"Laub","altersklassifizierung":"mittel","bemerkung":null,"pflanzjahr":null,"entnahmejahr":null,"baumpatenschaft":null,"objectid":18791},"geometry":{"type":"Point","coordinates":[15.495484819015958,47.07000055363573],"bbox":[15.495484819015958,47.07000055363573,15.495484819015958,47.07000055363573]}},{"type":"Feature","properties":{"nummer":30077,"baumbezeichnung_botanisch":"Pyrus calleryana 'Chanticleer'","baumbezeichnung_deutsch":"Chinesische Wildbirne","baumtyp":"Laub","altersklassifizierung":"jung","bemerkung":null,"pflanzjahr":null,"entnahmejahr":null,"baumpatenschaft":null,"objectid":28607},"geometry":{"type":"Point","coordinates":[15.494356632480919,47.06958296298349],"bbox":[15.494356632480919,47.06958296298349,15.494356632480919,47.06958296298349]}},{"type":"Feature","properties":{"nummer":30070,"baumbezeichnung_botanisch":"Prunus sp.","baumbezeichnung_deutsch":"Kirsche","baumtyp":"Laub","altersklassifizierung":"mittel","bemerkung":null,"pflanzjahr":null,"entnahmejahr":null,"baumpatenschaft":null,"objectid":28608},"geometry":{"type":"Point","coordinates":[15.494820575493824,47.0697624888798],"bbox":[15.494820575493824,47.0697624888798,15.494820575493824,47.0697624888798]}},{"type":"Feature","properties":{"nummer":30071,"baumbezeichnung_botanisch":"Fraxinus excelsior","baumbezeichnung_deutsch":"Esche","baumtyp":"Laub","altersklassifizierung":"mittel","bemerkung":null,"pflanzjahr":null,"entnahmejahr":null,"baumpatenschaft":null,"objectid":28612},"geometry":{"type":"Point","coordinates":[15.49468681896639,47.0696294187351],"bbox":[15.49468681896639,47.0696294187351,15.49468681896639,47.0696294187351]}},{"type":"Feature","properties":{"nummer":24700,"baumbezeichnung_botanisch":"Fraxinus excelsior","baumbezeichnung_deutsch":"Esche","baumtyp":"Laub","altersklassifizierung":"jung","bemerkung":null,"pflanzjahr":null,"entnahmejahr":null,"baumpatenschaft":null,"objectid":28744},"geometry":{"type":"Point","coordinates":[15.4956862622438,47.07010841616276],"bbox":[15.4956862622438,47.07010841616276,15.4956862622438,47.07010841616276]}},{"type":"Feature","properties":{"nummer":24698,"baumbezeichnung_botanisch":"Acer ginnala","baumbezeichnung_deutsch":"Feuerahorn","baumtyp":"Laub","altersklassifizierung":"mittel","bemerkung":null,"pflanzjahr":null,"entnahmejahr":null,"baumpatenschaft":null,"objectid":28745},"geometry":{"type":"Point","coordinates":[15.495762564514663,47.07006358513481],"bbox":[15.495762564514663,47.07006358513481,15.495762564514663,47.07006358513481]}},{"type":"Feature","properties":{"nummer":8825,"baumbezeichnung_botanisch":"Fraxinus excelsior","baumbezeichnung_deutsch":"Esche","baumtyp":"Laub","altersklassifizierung":"mittel","bemerkung":null,"pflanzjahr":null,"entnahmejahr":null,"baumpatenschaft":null,"objectid":28835},"geometry":{"type":"Point","coordinates":[15.495623725056882,47.069895720892184],"bbox":[15.495623725056882,47.069895720892184,15.495623725056882,47.069895720892184]}},{"type":"Feature","properties":{"nummer":8816,"baumbezeichnung_botanisch":"Carpinus betulus","baumbezeichnung_deutsch":"Hain - oder Weißbuche","baumtyp":"Laub","altersklassifizierung":"mittel","bemerkung":null,"pflanzjahr":null,"entnahmejahr":null,"baumpatenschaft":null,"objectid":28836},"geometry":{"type":"Point","coordinates":[15.495173922815091,47.06988325715034],"bbox":[15.495173922815091,47.06988325715034,15.495173922815091,47.06988325715034]}},{"type":"Feature","properties":{"nummer":8807,"baumbezeichnung_botanisch":"Tilia americana","baumbezeichnung_deutsch":"Amerikanische Linde","baumtyp":"Laub","altersklassifizierung":"alt","bemerkung":null,"pflanzjahr":null,"entnahmejahr":null,"baumpatenschaft":null,"objectid":25748},"geometry":{"type":"Point","coordinates":[15.49494970367701,47.06991405204073],"bbox":[15.49494970367701,47.06991405204073,15.49494970367701,47.06991405204073]}}]}