{"type":"FeatureCollection","features":[{"type":"Feature","properties":{"nummer":110,"baumbezeichnung_botanisch":"Prunus 'Bosnische Hauszwetschke'","baumbezeichnung_deutsch":"Fruchtzwetschke","baumtyp":"Laub","bemerkung":null,"pflanzjahr":"2007","entnahmejahr":null,"marker-size":"small","marker-symbol":"park2","marker-color":"#A3DDAD"},"geometry":{"type":"Point","coordinates":[15.40150736808636,47.07557206575338],"bbox":[15.40150736808636,47.07557206575338,15.40150736808636,47.07557206575338]}},{"type":"Feature","properties":{"nummer":4146,"baumbezeichnung_botanisch":"Castanea sativa","baumbezeichnung_deutsch":"Eßkastanie","baumtyp":"Laub","bemerkung":null,"pflanzjahr":"2005","entnahmejahr":null,"marker-size":"small","marker-symbol":"park2","marker-color":"#A3DDAD"},"geometry":{"type":"Point","coordinates":[15.40152305642046,47.07549571392692],"bbox":[15.40152305642046,47.07549571392692,15.40152305642046,47.07549571392692]}},{"type":"Feature","properties":{"nummer":22109,"baumbezeichnung_botanisch":"Aesculus hippocastanum","baumbezeichnung_deutsch":"Gemeine Roßkastanie","baumtyp":"Laub","bemerkung":null,"pflanzjahr":null,"entnahmejahr":null,"marker-size":"small","marker-symbol":"park2","marker-color":"#A3DDAD"},"geometry":{"type":"Point","coordinates":[15.40155218507239,47.07483408289598],"bbox":[15.40155218507239,47.07483408289598,15.40155218507239,47.07483408289598]}},{"type":"Feature","properties":{"nummer":26521,"baumbezeichnung_botanisch":"Aesculus hippocastanum","baumbezeichnung_deutsch":"Gemeine Roßkastanie","baumtyp":"Laub","bemerkung":null,"pflanzjahr":null,"entnahmejahr":null,"marker-size":"small","marker-symbol":"park2","marker-color":"#A3DDAD"},"geometry":{"type":"Point","coordinates":[15.40157851682392,47.07491098094926],"bbox":[15.40157851682392,47.07491098094926,15.40157851682392,47.07491098094926]}},{"type":"Feature","properties":{"nummer":6622,"baumbezeichnung_botanisch":"Acer platanoides","baumbezeichnung_deutsch":"Spitzahorn","baumtyp":"Laub","bemerkung":null,"pflanzjahr":"1984","entnahmejahr":null,"marker-size":"small","marker-symbol":"park2","marker-color":"#A3DDAD"},"geometry":{"type":"Point","coordinates":[15.40171195896808,47.07571694166864],"bbox":[15.40171195896808,47.07571694166864,15.40171195896808,47.07571694166864]}},{"type":"Feature","properties":{"nummer":13020,"baumbezeichnung_botanisch":"Acer platanoides","baumbezeichnung_deutsch":"Spitzahorn","baumtyp":"Laub","bemerkung":null,"pflanzjahr":"1984","entnahmejahr":null,"marker-size":"small","marker-symbol":"park2","marker-color":"#A3DDAD"},"geometry":{"type":"Point","coordinates":[15.401673710945,47.07561517394065],"bbox":[15.401673710945,47.07561517394065,15.401673710945,47.07561517394065]}},{"type":"Feature","properties":{"nummer":25203,"baumbezeichnung_botanisch":"Acer platanoides","baumbezeichnung_deutsch":"Spitzahorn","baumtyp":"Laub","bemerkung":null,"pflanzjahr":"1984","entnahmejahr":null,"marker-size":"small","marker-symbol":"park2","marker-color":"#A3DDAD"},"geometry":{"type":"Point","coordinates":[15.40164184178429,47.07551908917833],"bbox":[15.40164184178429,47.07551908917833,15.40164184178429,47.07551908917833]}},{"type":"Feature","properties":{"nummer":26673,"baumbezeichnung_botanisch":"Acer pseudoplatanus","baumbezeichnung_deutsch":"Bergahorn","baumtyp":"Laub","bemerkung":null,"pflanzjahr":"1984","entnahmejahr":null,"marker-size":"small","marker-symbol":"park2","marker-color":"#A3DDAD"},"geometry":{"type":"Point","coordinates":[15.40160280339155,47.07540606211386],"bbox":[15.40160280339155,47.07540606211386,15.40160280339155,47.07540606211386]}},{"type":"Feature","properties":{"nummer":18319,"baumbezeichnung_botanisch":"Acer pseudoplatanus","baumbezeichnung_deutsch":"Bergahorn","baumtyp":"Laub","bemerkung":null,"pflanzjahr":"1984","entnahmejahr":null,"marker-size":"small","marker-symbol":"park2","marker-color":"#A3DDAD"},"geometry":{"type":"Point","coordinates":[15.40156376102354,47.0752992955851],"bbox":[15.40156376102354,47.0752992955851,15.40156376102354,47.0752992955851]}},{"type":"Feature","properties":{"nummer":2268,"baumbezeichnung_botanisch":"Acer pseudoplatanus","baumbezeichnung_deutsch":"Bergahorn","baumtyp":"Laub","bemerkung":null,"pflanzjahr":"1984","entnahmejahr":null,"marker-size":"small","marker-symbol":"park2","marker-color":"#A3DDAD"},"geometry":{"type":"Point","coordinates":[15.40152703030297,47.07519060496701],"bbox":[15.40152703030297,47.07519060496701,15.40152703030297,47.07519060496701]}},{"type":"Feature","properties":{"nummer":16488,"baumbezeichnung_botanisch":"Sophora japonica","baumbezeichnung_deutsch":"Schnurbaum","baumtyp":"Laub","bemerkung":null,"pflanzjahr":null,"entnahmejahr":null,"marker-size":"small","marker-symbol":"park2","marker-color":"#A3DDAD"},"geometry":{"type":"Point","coordinates":[15.40147434334718,47.07532666828466],"bbox":[15.40147434334718,47.07532666828466,15.40147434334718,47.07532666828466]}},{"type":"Feature","properties":{"nummer":8947,"baumbezeichnung_botanisch":"Sophora japonica","baumbezeichnung_deutsch":"Schnurbaum","baumtyp":"Laub","bemerkung":null,"pflanzjahr":null,"entnahmejahr":null,"marker-size":"small","marker-symbol":"park2","marker-color":"#A3DDAD"},"geometry":{"type":"Point","coordinates":[15.40149046715542,47.0753895523387],"bbox":[15.40149046715542,47.0753895523387,15.40149046715542,47.0753895523387]}},{"type":"Feature","properties":{"nummer":8583,"baumbezeichnung_botanisch":"Betula pendula","baumbezeichnung_deutsch":"Sandbirke, Weißbirke","baumtyp":"Laub","bemerkung":null,"pflanzjahr":null,"entnahmejahr":null,"marker-size":"small","marker-symbol":"park2","marker-color":"#A3DDAD"},"geometry":{"type":"Point","coordinates":[15.40156698853882,47.07560981179164],"bbox":[15.40156698853882,47.07560981179164,15.40156698853882,47.07560981179164]}},{"type":"Feature","properties":{"nummer":8587,"baumbezeichnung_botanisch":"Sophora japonica","baumbezeichnung_deutsch":"Schnurbaum","baumtyp":"Laub","bemerkung":null,"pflanzjahr":null,"entnahmejahr":null,"marker-size":"small","marker-symbol":"park2","marker-color":"#A3DDAD"},"geometry":{"type":"Point","coordinates":[15.40160514793063,47.07572582345845],"bbox":[15.40160514793063,47.07572582345845,15.40160514793063,47.07572582345845]}}]}