{"type":"FeatureCollection","features":[{"type":"Feature","properties":{"nummer":9768,"baumbezeichnung_botanisch":"Juglans regia","baumbezeichnung_deutsch":"Walnuß","baumtyp":"Laub","bemerkung":null,"pflanzjahr":null,"entnahmejahr":"2011","marker-size":"small","marker-symbol":"park2","marker-color":"#B3B3B3"},"geometry":{"type":"Point","coordinates":[15.44533246982041,47.0448162331596],"bbox":[15.44533246982041,47.0448162331596,15.44533246982041,47.0448162331596]}},{"type":"Feature","properties":{"nummer":18402,"baumbezeichnung_botanisch":"Juglans regia","baumbezeichnung_deutsch":"Walnuß","baumtyp":"Laub","bemerkung":null,"pflanzjahr":"2003","entnahmejahr":null,"marker-size":"small","marker-symbol":"park2","marker-color":"#A3DDAD"},"geometry":{"type":"Point","coordinates":[15.44536528601163,47.04475910940342],"bbox":[15.44536528601163,47.04475910940342,15.44536528601163,47.04475910940342]}},{"type":"Feature","properties":{"nummer":14414,"baumbezeichnung_botanisch":"Prunus cerasifera 'Nigra'","baumbezeichnung_deutsch":"Echte Blutpflaume","baumtyp":"Laub","bemerkung":null,"pflanzjahr":"2006","entnahmejahr":null,"marker-size":"small","marker-symbol":"park2","marker-color":"#A3DDAD"},"geometry":{"type":"Point","coordinates":[15.44523880245231,47.04441876790551],"bbox":[15.44523880245231,47.04441876790551,15.44523880245231,47.04441876790551]}},{"type":"Feature","properties":{"nummer":9953,"baumbezeichnung_botanisch":"Quercus robur 'Fastigiata'","baumbezeichnung_deutsch":"Säulenstieleiche","baumtyp":"Laub","bemerkung":null,"pflanzjahr":"2004","entnahmejahr":null,"marker-size":"small","marker-symbol":"park2","marker-color":"#A3DDAD"},"geometry":{"type":"Point","coordinates":[15.44474972010415,47.04479700293625],"bbox":[15.44474972010415,47.04479700293625,15.44474972010415,47.04479700293625]}},{"type":"Feature","properties":{"nummer":10171,"baumbezeichnung_botanisch":"Quercus robur 'Fastigiata'","baumbezeichnung_deutsch":"Säulenstieleiche","baumtyp":"Laub","bemerkung":null,"pflanzjahr":"2004","entnahmejahr":null,"marker-size":"small","marker-symbol":"park2","marker-color":"#A3DDAD"},"geometry":{"type":"Point","coordinates":[15.44521732688622,47.04431933684755],"bbox":[15.44521732688622,47.04431933684755,15.44521732688622,47.04431933684755]}},{"type":"Feature","properties":{"nummer":17014,"baumbezeichnung_botanisch":"Malus sylvestris","baumbezeichnung_deutsch":"Holzapfel","baumtyp":"Laub","bemerkung":null,"pflanzjahr":null,"entnahmejahr":null,"marker-size":"small","marker-symbol":"park2","marker-color":"#A3DDAD"},"geometry":{"type":"Point","coordinates":[15.44486650206586,47.04468442668597],"bbox":[15.44486650206586,47.04468442668597,15.44486650206586,47.04468442668597]}},{"type":"Feature","properties":{"nummer":18073,"baumbezeichnung_botanisch":"Malus sylvestris","baumbezeichnung_deutsch":"Holzapfel","baumtyp":"Laub","bemerkung":null,"pflanzjahr":null,"entnahmejahr":null,"marker-size":"small","marker-symbol":"park2","marker-color":"#A3DDAD"},"geometry":{"type":"Point","coordinates":[15.4449647863635,47.04478773162263],"bbox":[15.4449647863635,47.04478773162263,15.4449647863635,47.04478773162263]}},{"type":"Feature","properties":{"nummer":11415,"baumbezeichnung_botanisch":"Aesculus x carnea","baumbezeichnung_deutsch":"Rotblühende Roßkastanie","baumtyp":"Laub","bemerkung":null,"pflanzjahr":null,"entnahmejahr":"2011","marker-size":"small","marker-symbol":"park2","marker-color":"#B3B3B3"},"geometry":{"type":"Point","coordinates":[15.44505069796396,47.04477619290806],"bbox":[15.44505069796396,47.04477619290806,15.44505069796396,47.04477619290806]}},{"type":"Feature","properties":{"nummer":7659,"baumbezeichnung_botanisch":"Acer pseudoplatanus","baumbezeichnung_deutsch":"Bergahorn","baumtyp":"Laub","bemerkung":null,"pflanzjahr":null,"entnahmejahr":null,"marker-size":"small","marker-symbol":"park2","marker-color":"#A3DDAD"},"geometry":{"type":"Point","coordinates":[15.44470437647785,47.04476861393032],"bbox":[15.44470437647785,47.04476861393032,15.44470437647785,47.04476861393032]}},{"type":"Feature","properties":{"nummer":1365,"baumbezeichnung_botanisch":"Acer pseudoplatanus","baumbezeichnung_deutsch":"Bergahorn","baumtyp":"Laub","bemerkung":null,"pflanzjahr":null,"entnahmejahr":null,"marker-size":"small","marker-symbol":"park2","marker-color":"#A3DDAD"},"geometry":{"type":"Point","coordinates":[15.44464033929296,47.04475346772438],"bbox":[15.44464033929296,47.04475346772438,15.44464033929296,47.04475346772438]}},{"type":"Feature","properties":{"nummer":19968,"baumbezeichnung_botanisch":"Acer pseudoplatanus","baumbezeichnung_deutsch":"Bergahorn","baumtyp":"Laub","bemerkung":null,"pflanzjahr":null,"entnahmejahr":null,"marker-size":"small","marker-symbol":"park2","marker-color":"#A3DDAD"},"geometry":{"type":"Point","coordinates":[15.44468863527497,47.04464153770729],"bbox":[15.44468863527497,47.04464153770729,15.44468863527497,47.04464153770729]}},{"type":"Feature","properties":{"nummer":1366,"baumbezeichnung_botanisch":"Acer pseudoplatanus","baumbezeichnung_deutsch":"Bergahorn","baumtyp":"Laub","bemerkung":null,"pflanzjahr":null,"entnahmejahr":null,"marker-size":"small","marker-symbol":"park2","marker-color":"#A3DDAD"},"geometry":{"type":"Point","coordinates":[15.44481683900284,47.04444966389148],"bbox":[15.44481683900284,47.04444966389148,15.44481683900284,47.04444966389148]}},{"type":"Feature","properties":{"nummer":18401,"baumbezeichnung_botanisch":"Acer pseudoplatanus","baumbezeichnung_deutsch":"Bergahorn","baumtyp":"Laub","bemerkung":null,"pflanzjahr":null,"entnahmejahr":null,"marker-size":"small","marker-symbol":"park2","marker-color":"#A3DDAD"},"geometry":{"type":"Point","coordinates":[15.44486196870729,47.04431329546397],"bbox":[15.44486196870729,47.04431329546397,15.44486196870729,47.04431329546397]}},{"type":"Feature","properties":{"nummer":17642,"baumbezeichnung_botanisch":"Picea abies","baumbezeichnung_deutsch":"Rotfichte","baumtyp":"Nadel","bemerkung":null,"pflanzjahr":null,"entnahmejahr":null,"marker-size":"small","marker-symbol":"park","marker-color":"#3BB451"},"geometry":{"type":"Point","coordinates":[15.44500453047346,47.04433149574558],"bbox":[15.44500453047346,47.04433149574558,15.44500453047346,47.04433149574558]}},{"type":"Feature","properties":{"nummer":29245,"baumbezeichnung_botanisch":"Picea abies","baumbezeichnung_deutsch":"Rotfichte","baumtyp":"Nadel","bemerkung":null,"pflanzjahr":null,"entnahmejahr":null,"marker-size":"small","marker-symbol":"park","marker-color":"#3BB451"},"geometry":{"type":"Point","coordinates":[15.44504779081997,47.04430741781195],"bbox":[15.44504779081997,47.04430741781195,15.44504779081997,47.04430741781195]}},{"type":"Feature","properties":{"nummer":18065,"baumbezeichnung_botanisch":"Populus nigra 'Italica'","baumbezeichnung_deutsch":"Säulenpappel","baumtyp":"Laub","bemerkung":null,"pflanzjahr":null,"entnahmejahr":"2011","marker-size":"small","marker-symbol":"park2","marker-color":"#B3B3B3"},"geometry":{"type":"Point","coordinates":[15.44509409357633,47.04431510195808],"bbox":[15.44509409357633,47.04431510195808,15.44509409357633,47.04431510195808]}},{"type":"Feature","properties":{"nummer":24993,"baumbezeichnung_botanisch":"Aesculus hippocastanum","baumbezeichnung_deutsch":"Gemeine Roßkastanie","baumtyp":"Laub","bemerkung":null,"pflanzjahr":null,"entnahmejahr":null,"marker-size":"small","marker-symbol":"park2","marker-color":"#A3DDAD"},"geometry":{"type":"Point","coordinates":[15.44516056309684,47.04439862803672],"bbox":[15.44516056309684,47.04439862803672,15.44516056309684,47.04439862803672]}},{"type":"Feature","properties":{"nummer":4477,"baumbezeichnung_botanisch":"Populus x canadensis","baumbezeichnung_deutsch":"Karnadische Pappel","baumtyp":"Laub","bemerkung":null,"pflanzjahr":null,"entnahmejahr":null,"marker-size":"small","marker-symbol":"park2","marker-color":"#A3DDAD"},"geometry":{"type":"Point","coordinates":[15.44518458541021,47.04445740833321],"bbox":[15.44518458541021,47.04445740833321,15.44518458541021,47.04445740833321]}},{"type":"Feature","properties":{"nummer":1367,"baumbezeichnung_botanisch":"Aesculus hippocastanum","baumbezeichnung_deutsch":"Gemeine Roßkastanie","baumtyp":"Laub","bemerkung":null,"pflanzjahr":null,"entnahmejahr":null,"marker-size":"small","marker-symbol":"park2","marker-color":"#A3DDAD"},"geometry":{"type":"Point","coordinates":[15.44509525954216,47.04467399967401],"bbox":[15.44509525954216,47.04467399967401,15.44509525954216,47.04467399967401]}},{"type":"Feature","properties":{"nummer":1368,"baumbezeichnung_botanisch":"Malus 'Kulturapfel'","baumbezeichnung_deutsch":"Apfelbaum","baumtyp":"Laub","bemerkung":null,"pflanzjahr":null,"entnahmejahr":null,"marker-size":"small","marker-symbol":"park2","marker-color":"#A3DDAD"},"geometry":{"type":"Point","coordinates":[15.44515731113928,47.04459391581568],"bbox":[15.44515731113928,47.04459391581568,15.44515731113928,47.04459391581568]}},{"type":"Feature","properties":{"nummer":10168,"baumbezeichnung_botanisch":"Fagus sylvatica 'Fastigiata'","baumbezeichnung_deutsch":"Säulenbuche","baumtyp":"Laub","bemerkung":null,"pflanzjahr":"2011","entnahmejahr":null,"marker-size":"small","marker-symbol":"park2","marker-color":"#A3DDAD"},"geometry":{"type":"Point","coordinates":[15.44482495191149,47.0448202095014],"bbox":[15.44482495191149,47.0448202095014,15.44482495191149,47.0448202095014]}},{"type":"Feature","properties":{"nummer":24531,"baumbezeichnung_botanisch":"Prunus 'Burlat'","baumbezeichnung_deutsch":"Frühtragende Süsskirsche","baumtyp":"Laub","bemerkung":null,"pflanzjahr":"2011","entnahmejahr":null,"marker-size":"small","marker-symbol":"park2","marker-color":"#A3DDAD"},"geometry":{"type":"Point","coordinates":[15.44479272809072,47.04461060959646],"bbox":[15.44479272809072,47.04461060959646,15.44479272809072,47.04461060959646]}}]}