{"type":"FeatureCollection","features":[{"type":"Feature","properties":{"nummer":27103,"baumbezeichnung_botanisch":"Fraxinus excelsior","baumbezeichnung_deutsch":"Esche","baumtyp":"Laub","bemerkung":null,"pflanzjahr":null,"entnahmejahr":null,"marker-size":"small","marker-symbol":"park2","marker-color":"#A3DDAD"},"geometry":{"type":"Point","coordinates":[15.39224559089653,47.06890774220953],"bbox":[15.39224559089653,47.06890774220953,15.39224559089653,47.06890774220953]}},{"type":"Feature","properties":{"nummer":6536,"baumbezeichnung_botanisch":"Tilia cordata","baumbezeichnung_deutsch":"Winterlinde","baumtyp":"Laub","bemerkung":null,"pflanzjahr":null,"entnahmejahr":null,"marker-size":"small","marker-symbol":"park2","marker-color":"#A3DDAD"},"geometry":{"type":"Point","coordinates":[15.39320223165529,47.06904046090841],"bbox":[15.39320223165529,47.06904046090841,15.39320223165529,47.06904046090841]}},{"type":"Feature","properties":{"nummer":27110,"baumbezeichnung_botanisch":"Tilia cordata","baumbezeichnung_deutsch":"Winterlinde","baumtyp":"Laub","bemerkung":null,"pflanzjahr":null,"entnahmejahr":null,"marker-size":"small","marker-symbol":"park2","marker-color":"#A3DDAD"},"geometry":{"type":"Point","coordinates":[15.39311248785462,47.06901562403439],"bbox":[15.39311248785462,47.06901562403439,15.39311248785462,47.06901562403439]}},{"type":"Feature","properties":{"nummer":27104,"baumbezeichnung_botanisch":"Tilia sp.","baumbezeichnung_deutsch":"Linde","baumtyp":"Laub","bemerkung":null,"pflanzjahr":null,"entnahmejahr":null,"marker-size":"small","marker-symbol":"park2","marker-color":"#A3DDAD"},"geometry":{"type":"Point","coordinates":[15.39282499484906,47.06894122342073],"bbox":[15.39282499484906,47.06894122342073,15.39282499484906,47.06894122342073]}},{"type":"Feature","properties":{"nummer":27108,"baumbezeichnung_botanisch":"Tilia cordata","baumbezeichnung_deutsch":"Winterlinde","baumtyp":"Laub","bemerkung":null,"pflanzjahr":null,"entnahmejahr":null,"marker-size":"small","marker-symbol":"park2","marker-color":"#A3DDAD"},"geometry":{"type":"Point","coordinates":[15.39273394553917,47.06891578181843],"bbox":[15.39273394553917,47.06891578181843,15.39273394553917,47.06891578181843]}},{"type":"Feature","properties":{"nummer":24571,"baumbezeichnung_botanisch":"Tilia sp.","baumbezeichnung_deutsch":"Linde","baumtyp":"Laub","bemerkung":null,"pflanzjahr":null,"entnahmejahr":null,"marker-size":"small","marker-symbol":"park2","marker-color":"#A3DDAD"},"geometry":{"type":"Point","coordinates":[15.39257362241083,47.06886825578897],"bbox":[15.39257362241083,47.06886825578897,15.39257362241083,47.06886825578897]}},{"type":"Feature","properties":{"nummer":2291,"baumbezeichnung_botanisch":"Tilia cordata","baumbezeichnung_deutsch":"Winterlinde","baumtyp":"Laub","bemerkung":null,"pflanzjahr":null,"entnahmejahr":null,"marker-size":"small","marker-symbol":"park2","marker-color":"#A3DDAD"},"geometry":{"type":"Point","coordinates":[15.39194897869769,47.06869611948349],"bbox":[15.39194897869769,47.06869611948349,15.39194897869769,47.06869611948349]}},{"type":"Feature","properties":{"nummer":22657,"baumbezeichnung_botanisch":"Tilia platyphyllos","baumbezeichnung_deutsch":"Sommerlinde","baumtyp":"Laub","bemerkung":null,"pflanzjahr":null,"entnahmejahr":null,"marker-size":"small","marker-symbol":"park2","marker-color":"#A3DDAD"},"geometry":{"type":"Point","coordinates":[15.39185220381329,47.06866841717482],"bbox":[15.39185220381329,47.06866841717482,15.39185220381329,47.06866841717482]}},{"type":"Feature","properties":{"nummer":27105,"baumbezeichnung_botanisch":"Tilia cordata 'Erecta'","baumbezeichnung_deutsch":"Winterlinde Erecta","baumtyp":"Laub","bemerkung":null,"pflanzjahr":"1996","entnahmejahr":null,"marker-size":"small","marker-symbol":"park2","marker-color":"#A3DDAD"},"geometry":{"type":"Point","coordinates":[15.3929238191897,47.06896751066434],"bbox":[15.3929238191897,47.06896751066434,15.3929238191897,47.06896751066434]}}]}