{"type":"FeatureCollection","features":[{"type":"Feature","properties":{"nummer":29651,"baumbezeichnung_botanisch":"Prunus sp.","baumbezeichnung_deutsch":"Kirsche","baumtyp":"Laub","bemerkung":null,"pflanzjahr":null,"entnahmejahr":null,"marker-size":"small","marker-symbol":"park2","marker-color":"#A3DDAD"},"geometry":{"type":"Point","coordinates":[15.41786803122492,47.08240949809272],"bbox":[15.41786803122492,47.08240949809272,15.41786803122492,47.08240949809272]}},{"type":"Feature","properties":{"nummer":29652,"baumbezeichnung_botanisch":"Salix sp.","baumbezeichnung_deutsch":"Weide","baumtyp":"Laub","bemerkung":null,"pflanzjahr":null,"entnahmejahr":null,"marker-size":"small","marker-symbol":"park2","marker-color":"#A3DDAD"},"geometry":{"type":"Point","coordinates":[15.41771388778976,47.08241588623631],"bbox":[15.41771388778976,47.08241588623631,15.41771388778976,47.08241588623631]}},{"type":"Feature","properties":{"nummer":29653,"baumbezeichnung_botanisch":"Fraxinus excelsior","baumbezeichnung_deutsch":"Esche","baumtyp":"Laub","bemerkung":null,"pflanzjahr":null,"entnahmejahr":null,"marker-size":"small","marker-symbol":"park2","marker-color":"#A3DDAD"},"geometry":{"type":"Point","coordinates":[15.41757277055769,47.08244372757332],"bbox":[15.41757277055769,47.08244372757332,15.41757277055769,47.08244372757332]}},{"type":"Feature","properties":{"nummer":29654,"baumbezeichnung_botanisch":"Prunus sp.","baumbezeichnung_deutsch":"Kirsche","baumtyp":"Laub","bemerkung":null,"pflanzjahr":null,"entnahmejahr":null,"marker-size":"small","marker-symbol":"park2","marker-color":"#A3DDAD"},"geometry":{"type":"Point","coordinates":[15.4175246874967,47.08238387183376],"bbox":[15.4175246874967,47.08238387183376,15.4175246874967,47.08238387183376]}},{"type":"Feature","properties":{"nummer":29655,"baumbezeichnung_botanisch":"Prunus sp.","baumbezeichnung_deutsch":"Kirsche","baumtyp":"Laub","bemerkung":null,"pflanzjahr":null,"entnahmejahr":null,"marker-size":"small","marker-symbol":"park2","marker-color":"#A3DDAD"},"geometry":{"type":"Point","coordinates":[15.41759858060384,47.08237073984476],"bbox":[15.41759858060384,47.08237073984476,15.41759858060384,47.08237073984476]}},{"type":"Feature","properties":{"nummer":27510,"baumbezeichnung_botanisch":"Juglans regia","baumbezeichnung_deutsch":"Walnuß","baumtyp":"Laub","bemerkung":null,"pflanzjahr":null,"entnahmejahr":null,"marker-size":"small","marker-symbol":"park2","marker-color":"#A3DDAD"},"geometry":{"type":"Point","coordinates":[15.41758353359764,47.08233707201282],"bbox":[15.41758353359764,47.08233707201282,15.41758353359764,47.08233707201282]}},{"type":"Feature","properties":{"nummer":29645,"baumbezeichnung_botanisch":"Prunus sp.","baumbezeichnung_deutsch":"Kirsche","baumtyp":"Laub","bemerkung":null,"pflanzjahr":null,"entnahmejahr":null,"marker-size":"small","marker-symbol":"park2","marker-color":"#A3DDAD"},"geometry":{"type":"Point","coordinates":[15.41750751230894,47.08234408735861],"bbox":[15.41750751230894,47.08234408735861,15.41750751230894,47.08234408735861]}},{"type":"Feature","properties":{"nummer":27508,"baumbezeichnung_botanisch":"Juglans regia","baumbezeichnung_deutsch":"Walnuß","baumtyp":"Laub","bemerkung":null,"pflanzjahr":null,"entnahmejahr":null,"marker-size":"small","marker-symbol":"park2","marker-color":"#A3DDAD"},"geometry":{"type":"Point","coordinates":[15.41753035672569,47.08231377279179],"bbox":[15.41753035672569,47.08231377279179,15.41753035672569,47.08231377279179]}},{"type":"Feature","properties":{"nummer":8065,"baumbezeichnung_botanisch":"Acer ginnala","baumbezeichnung_deutsch":"Feuerahorn","baumtyp":"Laub","bemerkung":null,"pflanzjahr":null,"entnahmejahr":null,"marker-size":"small","marker-symbol":"park2","marker-color":"#A3DDAD"},"geometry":{"type":"Point","coordinates":[15.41734981538692,47.08283085650871],"bbox":[15.41734981538692,47.08283085650871,15.41734981538692,47.08283085650871]}},{"type":"Feature","properties":{"nummer":7833,"baumbezeichnung_botanisch":"Acer ginnala","baumbezeichnung_deutsch":"Feuerahorn","baumtyp":"Laub","bemerkung":null,"pflanzjahr":null,"entnahmejahr":null,"marker-size":"small","marker-symbol":"park2","marker-color":"#A3DDAD"},"geometry":{"type":"Point","coordinates":[15.41738270856564,47.08282255259152],"bbox":[15.41738270856564,47.08282255259152,15.41738270856564,47.08282255259152]}},{"type":"Feature","properties":{"nummer":8229,"baumbezeichnung_botanisch":"Acer ginnala","baumbezeichnung_deutsch":"Feuerahorn","baumtyp":"Laub","bemerkung":null,"pflanzjahr":null,"entnahmejahr":null,"marker-size":"small","marker-symbol":"park2","marker-color":"#A3DDAD"},"geometry":{"type":"Point","coordinates":[15.41734169178339,47.08281698748812],"bbox":[15.41734169178339,47.08281698748812,15.41734169178339,47.08281698748812]}},{"type":"Feature","properties":{"nummer":7097,"baumbezeichnung_botanisch":"Castanea sativa","baumbezeichnung_deutsch":"Eßkastanie","baumtyp":"Laub","bemerkung":null,"pflanzjahr":null,"entnahmejahr":null,"marker-size":"small","marker-symbol":"park2","marker-color":"#A3DDAD"},"geometry":{"type":"Point","coordinates":[15.41769153112666,47.08260790386351],"bbox":[15.41769153112666,47.08260790386351,15.41769153112666,47.08260790386351]}},{"type":"Feature","properties":{"nummer":19013,"baumbezeichnung_botanisch":"Liquidambar styraciflua","baumbezeichnung_deutsch":"Amberbaum","baumtyp":"Laub","bemerkung":null,"pflanzjahr":null,"entnahmejahr":null,"marker-size":"small","marker-symbol":"park2","marker-color":"#A3DDAD"},"geometry":{"type":"Point","coordinates":[15.41762776261802,47.0826991997856],"bbox":[15.41762776261802,47.0826991997856,15.41762776261802,47.0826991997856]}},{"type":"Feature","properties":{"nummer":21436,"baumbezeichnung_botanisch":"Salix alba 'Tristis'","baumbezeichnung_deutsch":"Trauerweide","baumtyp":"Laub","bemerkung":null,"pflanzjahr":null,"entnahmejahr":null,"marker-size":"small","marker-symbol":"park2","marker-color":"#A3DDAD"},"geometry":{"type":"Point","coordinates":[15.41751009142607,47.08258716674033],"bbox":[15.41751009142607,47.08258716674033,15.41751009142607,47.08258716674033]}},{"type":"Feature","properties":{"nummer":22346,"baumbezeichnung_botanisch":"Alnus glutinosa","baumbezeichnung_deutsch":"Schwarzerle","baumtyp":"Laub","bemerkung":null,"pflanzjahr":null,"entnahmejahr":null,"marker-size":"small","marker-symbol":"park2","marker-color":"#A3DDAD"},"geometry":{"type":"Point","coordinates":[15.41716052139772,47.08258714610672],"bbox":[15.41716052139772,47.08258714610672,15.41716052139772,47.08258714610672]}},{"type":"Feature","properties":{"nummer":8464,"baumbezeichnung_botanisch":"Alnus glutinosa","baumbezeichnung_deutsch":"Schwarzerle","baumtyp":"Laub","bemerkung":null,"pflanzjahr":null,"entnahmejahr":null,"marker-size":"small","marker-symbol":"park2","marker-color":"#A3DDAD"},"geometry":{"type":"Point","coordinates":[15.41720597615151,47.08260455922235],"bbox":[15.41720597615151,47.08260455922235,15.41720597615151,47.08260455922235]}},{"type":"Feature","properties":{"nummer":26636,"baumbezeichnung_botanisch":"Alnus glutinosa","baumbezeichnung_deutsch":"Schwarzerle","baumtyp":"Laub","bemerkung":null,"pflanzjahr":null,"entnahmejahr":null,"marker-size":"small","marker-symbol":"park2","marker-color":"#A3DDAD"},"geometry":{"type":"Point","coordinates":[15.41720103506825,47.08264997979648],"bbox":[15.41720103506825,47.08264997979648,15.41720103506825,47.08264997979648]}},{"type":"Feature","properties":{"nummer":25615,"baumbezeichnung_botanisch":"Carpinus betulus","baumbezeichnung_deutsch":"Hain - oder Weißbuche","baumtyp":"Laub","bemerkung":null,"pflanzjahr":null,"entnahmejahr":null,"marker-size":"small","marker-symbol":"park2","marker-color":"#A3DDAD"},"geometry":{"type":"Point","coordinates":[15.41725055290429,47.08267310678798],"bbox":[15.41725055290429,47.08267310678798,15.41725055290429,47.08267310678798]}},{"type":"Feature","properties":{"nummer":8703,"baumbezeichnung_botanisch":"Fagus sylvatica","baumbezeichnung_deutsch":"Rotbuche","baumtyp":"Laub","bemerkung":null,"pflanzjahr":null,"entnahmejahr":null,"marker-size":"small","marker-symbol":"park2","marker-color":"#A3DDAD"},"geometry":{"type":"Point","coordinates":[15.41730422885447,47.08269626711979],"bbox":[15.41730422885447,47.08269626711979,15.41730422885447,47.08269626711979]}},{"type":"Feature","properties":{"nummer":11501,"baumbezeichnung_botanisch":"Carpinus betulus","baumbezeichnung_deutsch":"Hain - oder Weißbuche","baumtyp":"Laub","bemerkung":null,"pflanzjahr":null,"entnahmejahr":null,"marker-size":"small","marker-symbol":"park2","marker-color":"#A3DDAD"},"geometry":{"type":"Point","coordinates":[15.4172372943895,47.08271846062571],"bbox":[15.4172372943895,47.08271846062571,15.4172372943895,47.08271846062571]}},{"type":"Feature","properties":{"nummer":7771,"baumbezeichnung_botanisch":"Acer campestre","baumbezeichnung_deutsch":"Feldahorn","baumtyp":"Laub","bemerkung":null,"pflanzjahr":null,"entnahmejahr":null,"marker-size":"small","marker-symbol":"park2","marker-color":"#A3DDAD"},"geometry":{"type":"Point","coordinates":[15.4173154831093,47.08276738974219],"bbox":[15.4173154831093,47.08276738974219,15.4173154831093,47.08276738974219]}},{"type":"Feature","properties":{"nummer":8704,"baumbezeichnung_botanisch":"Acer campestre","baumbezeichnung_deutsch":"Feldahorn","baumtyp":"Laub","bemerkung":null,"pflanzjahr":null,"entnahmejahr":null,"marker-size":"small","marker-symbol":"park2","marker-color":"#A3DDAD"},"geometry":{"type":"Point","coordinates":[15.41728402848121,47.08278653795385],"bbox":[15.41728402848121,47.08278653795385,15.41728402848121,47.08278653795385]}},{"type":"Feature","properties":{"nummer":517,"baumbezeichnung_botanisch":"Acer campestre","baumbezeichnung_deutsch":"Feldahorn","baumtyp":"Laub","bemerkung":null,"pflanzjahr":null,"entnahmejahr":null,"marker-size":"small","marker-symbol":"park2","marker-color":"#A3DDAD"},"geometry":{"type":"Point","coordinates":[15.4173359368253,47.08278744196038],"bbox":[15.4173359368253,47.08278744196038,15.4173359368253,47.08278744196038]}},{"type":"Feature","properties":{"nummer":55266,"baumbezeichnung_botanisch":"Prunus sp.","baumbezeichnung_deutsch":"Kirsche","baumtyp":"Laub","bemerkung":null,"pflanzjahr":null,"entnahmejahr":null,"marker-size":"small","marker-symbol":"park2","marker-color":"#A3DDAD"},"geometry":{"type":"Point","coordinates":[15.41739297217074,47.08283358284038],"bbox":[15.41739297217074,47.08283358284038,15.41739297217074,47.08283358284038]}}]}